course_name,street_address,city,state,zip_code,course_type,holes,phone,longitude,latitude
Fireweed Meadows Golf Course,Mylofritz Ave,Anchor Point,AK,99556,Public,9 Holes,(907) 226-2582,-151.820102,59.773222
Anchorage Golf Course,3651 Omalley Rd,Anchorage,AK,99507-4266,Public,18 Holes,(907) 522-3363,-149.814495,61.127089
Russian Jack Springs Golf Course,1600 Lidia Selkregg Ln,Anchorage,AK,99508-3131,Municipal,9 Holes,(907) 343-6992,-149.788303,61.206435
Tanglewood Lakes Golf Club,11801 Brayton Dr,Anchorage,AK,11801,Public,9 Holes,(907) 345-4600,-149.853757,61.113415
Eagleglen Golf Course,4414 1st St,Elmendorf Afb,AK,99506,Public,18 Holes,(907) 552-3821,-149.824373,61.233041
Fairbanks Golf and Country Club,1735 Farmers Loop Rd,Fairbanks,AK,99709-6712,Public,9 Holes,(907) 479-6555,-147.816536,64.877632
North Star Golf Course,330 Golf Club Dr,Fairbanks,AK,99712-2214,Public,18 Holes,(907) 457-4653,-147.613637,64.89708
Moose Run Golf Course,27000 Artic Valley Road,Fort Richardson,AK,27000,Public,36 Holes,(907) 428-0056,-149.542309,61.24357
Chena Bend Golf Course,2092 Building Gafeney,Fort Wainwright,AK,99703,Public,18 Holes,(907) 353-6223,-147.626814,64.814935
Mount Fairweather Golf Course,1 Mile Dock Road,Gustavus,AK,99826,Public,9 Holes,(907) 697-2214,-135.742963,58.420408
Valley of the Eagles Golf Links,1 1/2 Mile Haines Hwy,Haines,AK,99827,Public,9 Holes,(907) 766-2401,-135.481298,59.239917
Black Diamond Golf Course,Mile 247 George Park Hwy Otto Lake Rd,Healy,AK,99743,Public,9 Holes,(907) 683-4653,-149.039817,63.848484
Kachemak Bay Links Par 3 Golf,56910 East Rd,Homer,AK,56910,Public,9 Holes,(907) 235-0606,-151.370752,59.692919
Mendenhall Golf Course,The End of Industrial Blvd,Juneau,AK,99801,Public,9 Holes,(907) 789-1221,-134.610092,58.361763
Kenai Golf Course,1420 Lawton Dr,Kenai,AK,99611-8232,Public,18 Holes,(907) 283-7500,-151.183901,60.559592
Bear Valley Golf Course,2 8 Mile Anton Larsen Bay Rd,Kodiak,AK,99615,Public,9 Holes,(907) 486-9793,-152.527572,57.772932
Cottonwood Country Club,Mile Post 32,Nikiski,AK,99635,Public,9 Holes,(907) 776-8745,-151.291629,60.690101
Palmer Golf Course,1000 Lepak Avenue,Palmer,AK,99645,Municipal,18 Holes,(907) 745-4653,-149.087712,61.584757
Sea Mountain Golf Course,301 Granite Creek Rd,Sitka,AK,99835,Public,9 Holes,(907) 747-5663,-135.395965,57.101605
Birch Ridge Golf Course Inc,42223 Sterling Hwy,Soldotna,AK,42223,Public,9 Holes,(907) 262-5270,-151.007643,60.499382
Bird Homestead Golf Course,37109 Funny River Rd,Soldotna,AK,37109,Public,9 Holes,(907) 260-4653,-150.856551,60.498969
Settlers Bay Golf Course,Mile 8 Knik Goose Bay Road,Wasilla,AK,99687,Public,18 Holes,(907) 376-5466,-149.613961,61.504628
Sleepy Hollow Golf Course,2721 E Sleepy Hollow Cir,Wasilla,AK,99654,Public,9 Holes,(907) 376-5948,-149.382193,61.655225
Muskeg Meadows Golf Course,Ishiyama Dr,Wrangell,AK,99929,Public,9 Holes,(907) 874-4653,-132.356586,56.473241
Albertville Golf & Country Club,860 Country Club Rd,Albertville,AL,35951-3966,Private,18 Holes,(256) 878-4403,-86.198381,34.296785
Willow Brook Golf Corp,134 Par Dr,Albertville,AL,35951-6165,Public,18 Holes,(256) 878-6766,-86.11883,34.3553
Willow Point Golf & Country Club,3054 Willow Point Rd,Alexander City,AL,35010-6264,Semi Private,18 Holes,(256) 212-1409,-85.976846,32.788959
Aliceville Country Club,Highway 14 North,Aliceville,AL,35442,Private,18 Holes,(205) 367-7868,-88.141013,33.102758
Alpine Bay Resort,9855 Renfroe Rd,Alpine,AL,35014-6711,Public,18 Holes,(256) 268-2920,-86.300495,33.434675
Whippoorwill Golf Club,2920 County Highway 14,Altoona,AL,35952-6306,Public,18 Holes,(205) 466-7003,-86.435707,34.113605
Evans Barnes Golf Course,Lurleen B Wallace Jr College,Andalusia,AL,36420,Municipal,18 Holes,(334) 222-8400,-86.451201,31.321218
Andalusia Country Club,210 Country Club Dr,Andalusia,AL,36421-4204,Private,18 Holes,(334) 222-5282,-86.511445,31.315197
Old Pine Golf Course,24908 Harmony Church Rd,Andalusia,AL,24908,Public,9 Holes,(334) 222-3242,-86.377095,31.344885
Anniston Municipal Golf Course,1341 Johnston Dr,Anniston,AL,36207-4090,Municipal,9 Holes,(256) 231-7631,-85.810966,33.665031
Cane Creek Golf Course,2247 Baltzell Gate Road,Anniston,AL,36205,Municipal,18 Holes,(256) 820-9174,-85.792399,33.71603
Anniston Country Club,601 Highland Ave,Anniston,AL,36207-5856,Semi Private,18 Holes,(256) 237-8412,-85.818524,33.651845
Indian Oaks Golf Club,201 Cherokee Trl,Anniston,AL,36206-1015,Public,18 Holes,(256) 820-4030,-85.87225,33.730704
Pine Hill Country Club,175 Pine Hill Dr,Anniston,AL,36207-8047,Public,18 Holes,(256) 237-2633,-85.703307,33.671577
Brookside Golf Course,Sundown Drive,Arab,AL,35016,Public,18 Holes,(256) 586-5765,-86.511111,34.326222
Twin Lakes Golf Course,211 Golfview Dr NE,Arab,AL,35016-5412,Public,18 Holes,(256) 586-3269,-86.498066,34.343263
Clay County Golf Course,158 Country Club Rd,Ashland,AL,36251-7852,Public,9 Holes,(256) 354-2814,-85.798765,33.280444
Athens Golf & Country Club,518 Hatfield Lake Rd,Athens,AL,35611-8412,Public,9 Holes,(256) 232-0809,-86.954304,34.759613
Canebrake Golf Club,23015 Founders Cir,Athens,AL,23015,Public,19 Holes,(256) 232-2412,-86.91543,34.763744
Chriswood Golf Course,26181 Nick Davis Road,Athens,AL,26181,Public,18 Holes,(256) 232-9759,-86.857802,34.802979
Southern Gayles Golf Community,22230 Mooresville Rd,Athens,AL,22230,Public,18 Holes,(256) 232-9888,-86.875101,34.879828
Atmore Country Club,4474 Highway 31 South,Atmore,AL,36504,Private,9 Holes,(251) 368-4486,-87.492589,31.02483
Wills Creek Country Club,216 Country Club Rd,Attalla,AL,35954-2603,Public,18 Holes,(256) 538-8781,-86.096727,34.009726
Indian Pines Golf Course,900 Country Club Dr,Auburn,AL,36830-5208,Municipal,18 Holes,(334) 821-0880,-85.441306,32.62367
The Auburn University Club,1650 Yarbrough Farms Blvd,Auburn,AL,36830-2679,Semi Private,18 Holes,(334) 821-8381,-85.505203,32.632656
Auburn Links At Mill Creek,826 Shell Toomer Pkwy,Auburn,AL,36830-6958,Public,18 Holes,(334) 887-5151,-85.507329,32.554634
Moore's Mill Golf Club,1957 Fairway Dr,Auburn,AL,36830-7627,Public,18 Holes,(334) 826-8989,-85.445537,32.580497
Holly Hills Country Club,Highway 59 South,Bay Minette,AL,36507,Private,9 Holes,(251) 937-8230,-87.773055,30.787791
Frank House Municipal Golf Course,801 Golf Course Rd,Bessemer,AL,35022-6001,Municipal,18 Holes,(205) 424-9540,-86.991577,33.367315
Woodward Golf & Country Club,2141 Wheel Dr,Bessemer,AL,35020-2611,Private,18 Holes,(205) 424-5500,-86.957834,33.428521
Bent Brook Golf Course,7900 Dickey Springs Rd,Bessemer,AL,35022-6378,Public,54 Holes,(205) 424-2368,-86.973348,33.33316
Roebuck Municipal Golf Course,8920 Roebuck Blvd,Birmingham,AL,35206-1524,Municipal,18 Holes,(205) 836-7318,-86.711209,33.582031
Grayson Valley Country Club,2201 Grayson Valley Dr,Birmingham,AL,35235-2027,Private,18 Holes,(205) 854-2382,-86.642887,33.645754
Greystone Golf & Country Club,4100 Greystone Dr,Birmingham,AL,35242-6409,Private,18 Holes,(205) 986-5125,-86.651369,33.429533
Greystone Golf & Country Club,330 Legacy Way,Birmingham,AL,35242-6042,Private,18 Holes,(205) 986-5160,-86.622465,33.454637
Hoover Country Club,3140 Club Dr,Birmingham,AL,35226-2704,Private,18 Holes,(205) 822-5707,-86.81748,33.399573
Pine Tree Country Club,5100 Pine Whispers Dr,Birmingham,AL,35210-3429,Private,18 Holes,(205) 956-1599,-86.653914,33.527852
Vestavia Country Club,400 Beaumont Dr,Birmingham,AL,35216-1307,Private,27 Holes,(205) 822-8300,-86.772297,33.454757
Mountain Brook Club,19 Beechwood Rd,Birmingham,AL,35213-3955,Private,18 Holes,(205) 871-3769,-86.744309,33.495525
Altadena Valley Golf & Country Club,2651 Alta Vista Dr,Birmingham,AL,35243,Semi Private,18 Holes,(530) 674-0475,-86.748825,33.417863
Heatherwood Country Club,400 Saint Annes Dr,Birmingham,AL,35244-3621,Semi Private,18 Holes,(205) 991-7576,-86.749207,33.397505
Inverness Country Club,1 Country Club Drive,Birmingham,AL,35242-4031,Semi Private,18 Holes,(205) 991-8610,-86.766597,33.496983
Riverchase Country Club,2000 Club Rd,Birmingham,AL,35244-1412,Semi Private,18 Holes,(205) 988-8111,-86.826049,33.338098
Country Club of Birmingham,3325 Country Club Rd,Birmingham,AL,35213-3636,Semi Private,36 Holes,(205) 879-4611,-86.765447,33.49841
Eagle Point Golf Club,4500 Eagle Point Dr,Birmingham,AL,35242-6906,Public,18 Holes,(205) 991-9070,-86.669263,33.399671
Robert Trent Jones Golf Trail At Oxmoor Valley,100 Sunbelt Pkwy,Birmingham,AL,35211-5958,Public,54 Holes,(205) 942-1177,-86.877968,33.419409
Ross Bridge Golf Resort,167 Sunbelt Pkwy,Birmingham,AL,35211-5959,Public,18 Holes,(205) 949-3185,-86.879498,33.392116
West Side Golf Center,3501 Cleburn Ave SW,Birmingham,AL,35221-1031,Public,9 Holes,(205) 923-2979,-86.89096,33.468352
Highland Park Golf Course,3300 Highland Ave S,Birmingham,AL,35205-1411,Public,NA,(205) 322-1902,-86.779392,33.512479
Boaz Golf Club,1715 Al Highway 205,Boaz,AL,35956-5901,Public,18 Holes,(256) 593-5501,-86.153561,34.173445
Dogwood Hills Golf Course,2385 Douglas Ave,Brewton,AL,36426-3555,Municipal,9 Holes,(251) 809-1750,-87.068132,31.144816
Country Club of Brewton,700 Clubhouse Rd,Brewton,AL,36426-3376,Public,18 Holes,(251) 867-3408,-87.059413,31.209551
Capstone Golf Club,16000 Capstone Blvd,Brookwood,AL,16000,Public,18 Holes,(205) 462-0590,-87.33057,33.237681
Brundidge Country Club,Spring Hill Road,Brundidge,AL,36010,Private,9 Holes,(334) 735-3680,-85.816771,31.7202
Hidden Valley Golf Course,607 County Road 393,Bryant,AL,35958-7031,Public,18 Holes,(256) 495-9608,-85.661585,34.974544
Choctaw Country Club,Country Club Drive,Butler,AL,36904,Private,9 Holes,(205) 459-2529,-88.188385,32.090062
Timberline Golf Club,300 Timberline Trl,Calera,AL,35040-4679,Public,18 Holes,(205) 668-7888,-86.734914,33.102898
Roland Cooper State Park Golf Course,285 Deer Run Dr,Camden,AL,36726-3825,Municipal,9 Holes,(334) 682-4838,-87.245535,32.055353
Cherokee Country Club,Off Highway 9,Centre,AL,35960,Public,18 Holes,(256) 927-5070,-85.647439,34.112623
Cahaba Falls Country Club,530 2nd Street North,Centreville,AL,35042,Public,18 Holes,(205) 926-9323,-87.137499,32.968185
Deerfield Country Club,16461 Saint Stephens Ave,Chatom,AL,16461,Public,18 Holes,(251) 847-2056,-88.205439,31.454237
Deer Valley Links,246 Cain Rd,Chelsea,AL,35043-9020,Public,18 Holes,(205) 678-2292,-86.71452,33.322705
Coosa Pines Golf Course,16615 Plant Rd,Childersburg,AL,16615,Public,18 Holes,(256) 378-5529,-86.358914,33.334061
Mill Creek,18350 Lakeview Dr,Citronelle,AL,18350,Municipal,18 Holes,(251) 866-7881,-88.310005,31.073651
Clanton Country Club,1 Country Club Drive,Clanton,AL,35045,Public,9 Holes,(205) 755-0415,-86.609619,32.81974
Magnolia Meadows Golf Course,315 Highway 47 S,Columbiana,AL,35051-9345,Public,18 Holes,(205) 670-0001,-86.605427,33.169582
Riverbend Golf Course,1612 Mountain View Rd,Cordova,AL,35550-4028,Public,18 Holes,(205) 648-4393,-87.134163,33.791068
Valley Landing Golf Course,985 County Road 595,Courtland,AL,35618-3460,Municipal,18 Holes,(256) 637-8735,-87.351811,34.670338
Roundabout Plantation,321 Roundabout Dr,Cowarts,AL,36321-5506,Public,18 Holes,(334) 793-3300,-85.306541,31.226876
Terri Pines Country Club,700 Pine Hill Dr,Cullman,AL,35057-6961,Semi Private,18 Holes,(256) 739-0720,-86.889256,34.224233
Chesley Oaks Golf Course,1035 County Road 1583,Cullman,AL,35058-1400,Public,18 Holes,(256) 796-9808,-86.670194,34.249113
StillWaters Golf and Country Club,797 Moonbrook Dr,Dadeville,AL,36853-5645,Public,18 Holes,(256) 825-1353,-85.805971,32.745816
Lake Forest Yacht & Country Club,1 Golf Ter,Daphne,AL,36526-7657,Semi Private,27 Holes,(251) 626-9324,-87.895203,30.649638
Isle Dauphine Club Golf Course,100 Orleans Dr,Dauphin Island,AL,36528-4314,Public,18 Holes,(251) 861-2433,-88.11597,30.247426
Point Mallard Golf Club,2600A Point Mallard Pkwy SE,Decatur,AL,35603-5604,Municipal,18 Holes,(256) 341-4925,-86.930105,34.545337
Decatur Country Club,2401 Country Club Rd SE,Decatur,AL,35601-6544,Private,18 Holes,(256) 353-3039,-86.96625,34.567514
Burningtree Country Club,2521 Burningtree Dr SE,Decatur,AL,35603-5138,Semi Private,18 Holes,(256) 355-5982,-86.933742,34.518897
Cedar Ridge Golf Course,3030 Modaus Rd SW,Decatur,AL,35603-4254,Public,18 Holes,(256) 353-4653,-87.049833,34.561342
Indian Hills Golf Course,127 Par Dr,Decatur,AL,35603,Public,18 Holes,(256) 773-9939,-86.931083,34.494825
The Ravine Golf Course,748 Sportsplex Road,Demopolis,AL,36732,Municipal,18 Holes,(334) 289-1414,-87.791047,32.486124
Demopolis Country Club,1620 Country Club Dr,Demopolis,AL,36732-3440,Private,18 Holes,(334) 289-0880,-87.859405,32.499999
Horse Creek Golf Club,1745 Highway 78,Dora,AL,35062-2322,Municipal,18 Holes,(205) 648-1499,-87.058918,33.750913
Dothan Country Club,200 S Cherokee Ave,Dothan,AL,36301-1282,Private,18 Holes,(334) 792-6650,-85.417632,31.22387
Dothan National Golf Club & Hotel,7410 S U S 231,Dothan,AL,36301-7822,Public,18 Holes,(800) 214-1150,-85.404517,31.120801
Green Hill Golf Course,2600 Campbellton Hwy,Dothan,AL,36301-7636,Public,18 Holes,(334) 792-3597,-85.421542,31.15937
Highland Oaks Golf Course,904 Royal Pkwy,Dothan,AL,36305-6922,Public,36 Holes,(334) 712-2820,-85.49638,31.226907
Highland Oaks Par 3 Golf Course,904 Royal Pkwy,Dothan,AL,36305-6922,Public,9 Holes,(334) 712-2820,-85.49638,31.226907
High Pointe Golf Club,4603 Golfway Dr,Eight Mile,AL,36613-3733,Municipal,9 Holes,(251) 452-6531,-88.168015,30.756027
Elba Country Club,1477 Country Club Way,Elba,AL,36323,Private,9 Holes,(334) 897-6600,-86.097119,31.437234
Soldiers Creek Golf Club At Woerner Preserve,12096 County Road 95,Elberta,AL,12096,Public,18 Holes,(251) 986-8633,-87.547564,30.403182
Marcum Golf Course,9621 Bagley Rd,Empire,AL,35063-5119,Public,18 Holes,(205) 647-3377,-86.956142,33.792773
Enterprise Country Club,3000 Ozark Hwy,Enterprise,AL,36330-8246,Private,18 Holes,(334) 347-2726,-85.831816,31.360296
Tartan Pines Golf Club,423 Tartan Way,Enterprise,AL,36330-2315,Public,18 Holes,(334) 393-8000,-85.879854,31.312646
Lake Point Resort State Park Golf Course,104 Lakepoint Dr,Eufaula,AL,36027-4612,Municipal,18 Holes,(334) 687-6677,-85.114176,31.98767
Eufaula Country Club,2650 Country Club Rd,Eufaula,AL,36027-5907,Private,18 Holes,(334) 687-2007,-85.172012,31.88752
Red Eagle Golf Course,101 Merion Dr,Eufaula,AL,36027-3631,Public,18 Holes,(334) 687-8003,-85.157631,31.821922
Greene County Golf Course,Lower Gainesville Road,Eutaw,AL,35462,Municipal,9 Holes,(205) 372-4144,-87.938072,32.852601
Evergreen Golf Course,Highway 31 North,Evergreen,AL,36401,Public,9 Holes,(251) 578-5214,-86.887753,31.43712
Quail Creek Golf Course,19841 Quail Creek Dr,Fairhope,AL,19841,Municipal,18 Holes,(251) 990-0240,-87.844066,30.513396
Rock Creek Golf Club,140 Clubhouse Dr,Fairhope,AL,36532-3372,Public,18 Holes,(251) 928-4223,-87.88837,30.573041
Fayette Country Club,303 County Road 16,Fayette,AL,35555,Private,9 Holes,(205) 932-4079,-87.872075,33.685932
Dogwood Hills Golf Club,26460 Al Highway 71,Flat Rock,AL,26460,Public,18 Holes,(256) 632-3634,-85.658124,34.824072
Blackberry Trail Golf Course,112 Clubhouse Dr,Florence,AL,35630-8922,Municipal,18 Holes,(256) 740-8825,-87.630083,34.861748
Florence Golf & Country Club,450 Country Club Dr,Florence,AL,35630-0734,Private,18 Holes,(256) 766-1427,-87.714906,34.810585
Glenlakes Golf Club,9530 Clubhouse Dr,Foley,AL,36535-9326,Public,27 Holes,(251) 955-1220,-87.637127,30.364024
Gulf Links Executive Golf Course,3901 S McKenzie St,Foley,AL,36535-3719,Public,18 Holes,(251) 970-1444,-87.682934,30.357377
Magnolia Springs Golf,10831 Magnolia Springs Hwy,Foley,AL,10831,Public,9 Holes,(251) 965-4653,-87.768043,30.381983
De Soto Country Club,502 Crystal Lake Dr NE,Fort Payne,AL,35967-4204,Private,9 Holes,(256) 845-2571,-85.694491,34.462253
Terrapin Hills Country Club,5501 Club Dr NW,Fort Payne,AL,35967-8241,Private,18 Holes,(256) 845-4624,-85.687898,34.509586
Silver Wings Golf Course,Combat Road Bldg 20067,Fort Rucker,AL,20067,Public,54 Holes,(334) 598-2449,-85.692736,31.352046
Twin Bridges Golf Course,901 Riverbend Dr,Gadsden,AL,35901-2569,Municipal,18 Holes,(256) 549-4866,-85.985059,34.025973
Gadsden Country Club,1884 Rainbow Dr,Gadsden,AL,35901-5504,Private,18 Holes,(256) 546-2011,-86.012825,33.975807
River Trace Golf Club,464 Nowlin St,Gadsden,AL,35903-1055,Public,18 Holes,(256) 546-8821,-85.986479,34.01053
Castle Pines Country Club,1600 Quail Ridge Dr,Gardendale,AL,35071-2873,Public,18 Holes,(205) 631-3140,-86.781718,33.660967
River Oaks Golf Course,203 River Oaks Rd,Geneva,AL,36340,Public,9 Holes,(334) 684-6190,-85.862528,31.028007
Briarmeade Golf Course,505 Ralph Ave,Glencoe,AL,35905-1014,Private,18 Holes,(256) 492-1150,-85.946376,33.96101
The Robert Trent Jones Golf Trail At Silver Lake,1 Sunbelt Pkwy,Glencoe,AL,35905-8840,Public,54 Holes,(256) 892-3268,-85.927814,33.884072
The Robert Trent Jones Golf Trail Par 3 At Silver Lake,1 Sunbelt Pkwy,Glencoe,AL,35905-8840,Public,9 Holes,(256) 892-3268,-85.927814,33.884072
Hatchett Creek Golf Course,Mount Olive Road,Goodwater,AL,35072,Public,9 Holes,(256) 839-5612,-86.099665,33.056103
Mountain View Golf Course,3200 Mountain View Dr,Graysville,AL,35073-9691,Public,45 Holes,(205) 674-8362,-86.940498,33.633344
Lakeview Country Club,Millwood Road,Greensboro,AL,36744,Public,9 Holes,(334) 624-8654,-87.634199,32.693137
Greenville Country Club,902 Fort Dale Rd,Greenville,AL,36037-3611,Private,9 Holes,(334) 382-8312,-86.639508,31.846232
The Robert Trent Jones Golf Trail At Cambrian Ridg,101 Sunbelt Pkwy,Greenville,AL,36037-7935,Public,63 Holes,(334) 382-9787,-86.686282,31.896111
Pikeville Country Club,1310 Country Club Rd,Guin,AL,35563-3114,Private,18 Holes,(205) 921-9577,-87.905842,33.971968
Gulf State Park Golf Course,20115 State Highway 135,Gulf Shores,AL,20115,Municipal,18 Holes,(251) 948-4653,-87.678015,30.265806
Craft Farms Golf Resort,3840 Cotton Creek Blvd,Gulf Shores,AL,36542-2729,Public,36 Holes,(251) 968-7500,-87.669298,30.304795
Kiva Dunes,815 Plantation Rd,Gulf Shores,AL,36542-8286,Public,18 Holes,(251) 540-7000,-87.888474,30.235553
Peninsula Golf & Racquet Club,20 Peninsula Blvd,Gulf Shores,AL,36542-8280,Public,54 Holes,(251) 968-8009,-87.773899,30.251587
The Golf Club of the Wharf,520 Clubhouse Dr,Gulf Shores,AL,36542-3490,Public,18 Holes,(251) 968-4501,-87.701114,30.270101
Lake Guntersville State Park Golf Course,7966 Al Highway 227,Guntersville,AL,35976-8280,Municipal,18 Holes,(256) 571-5458,-86.217249,34.369603
Gunter's Landing,1000 Gunters Landing Rd,Guntersville,AL,35976-8627,Public,18 Holes,(256) 582-3000,-86.255397,34.394562
Stoney Mountain Golf Course,5200 Georgia Mountain Rd,Guntersville,AL,35976-7229,Public,18 Holes,(256) 582-2598,-86.388367,34.374594
Haleyville Country Club,1331 Airport Road,Haleyville,AL,35565,Private,18 Holes,(205) 486-3906,-87.604364,34.277349
Cullman Municipal Golf Club,2321 County Road 490,Hanceville,AL,35077-8125,Municipal,18 Holes,(256) 739-2386,-86.831362,34.110408
Quail Creek Golf Course & Conference Center,233 Quail Creek Dr,Hartselle,AL,35640-6952,Public,18 Holes,(256) 784-5033,-86.863833,34.390421
Harvest Hills,791 Harvest Rd,Harvest,AL,35749-8625,Public,18 Holes,(256) 890-0705,-86.740041,34.859823
Plantation Golf Club,11900 State Highway 160,Hayden,AL,11900,Public,27 Holes,(205) 559-8200,-86.668003,33.949571
Headland Country Club,4175 State Highway 134 E,Headland,AL,36345-6403,Public,9 Holes,(334) 693-2324,-85.260701,31.351977
Silver Ridge Golf Club,195 Golf Club Dr,Horton,AL,35980-8796,Public,18 Holes,(256) 593-4055,-86.372523,34.16761
Huntsville Municipal Golf Course,2151 Airport Rd SW,Huntsville,AL,35801-5364,Municipal,18 Holes,(256) 880-1151,-86.584758,34.688979
Huntsville Country Club,2601 Oakwood Ave NW,Huntsville,AL,35810-4309,Private,18 Holes,(256) 859-3110,-86.612913,34.749339
Valley Hill Country Club,8300 Valley Hill Dr SE,Huntsville,AL,35802-3228,Private,27 Holes,(256) 883-7620,-86.543117,34.657309
Redstone Golf Course,4140 Goss Road,Huntsville,AL,35898-0001,Semi Private,45 Holes,(256) 883-7977,-86.668185,34.698434
The Ledges Country Club,32 Castle Down Dr,Huntsville,AL,35802-1295,Semi Private,18 Holes,(256) 883-4191,-86.518341,34.671148
Monrovia Golf Course,7130B Highway 72 W,Huntsville,AL,35806,Public,18 Holes,(256) 837-9469,-86.714329,34.75548
Sunset Landing Golf Course,346 James Record Rd SW,Huntsville,AL,35824-1514,Public,18 Holes,(256) 464-5050,-86.773548,34.658224
Silver King Golf Club,7960 Edgar Roberts Rd,Irvington,AL,36544-4144,Public,18 Holes,(251) 824-9660,-88.228975,30.44651
Jackson Links Golf Course,Pierce Memorial Park,Jackson,AL,36545,Public,9 Holes,(251) 246-9993,-87.891251,31.507903
Lake Winds Golf Course,95 County Road 40,Jacksons Gap,AL,36861-3142,Municipal,18 Holes,(256) 825-9860,-85.873055,32.885532
Stoney Brook Golf Course,1505 Country Club Dr SW,Jacksonville,AL,36265-3367,Public,18 Holes,(256) 435-3114,-85.773421,33.784875
Musgrove Country Club,916 Country Club Rd,Jasper,AL,35503-6006,Semi Private,18 Holes,(205) 221-7900,-87.287201,33.905893
Curry Golf Course,100 Boardwalk Ln,Jasper,AL,35503-5677,Public,9 Holes,(205) 221-5678,-87.211115,33.958805
Bear Branch Golf Club,3947 Holly Grove Rd,Jasper,AL,35501-7412,Public,9 Holes,(205) 522-9237,-87.327934,33.835633
Turtle Point Yacht & Country Club,1000 Country Club Dr,Killen,AL,35645,Private,18 Holes,(256) 757-2155,-87.545134,34.843621
Riverside Country Club,2001 Cherry Drive,Lanett,AL,36863,Public,9 Holes,(334) 644-4503,-85.215039,32.87264
Linden Country Club,Highway 28 East,Linden,AL,36748,Private,18 Holes,(334) 295-8678,-87.767996,32.294162
Livingston Country Club,Country Club Road,Livingston,AL,35470,Private,9 Holes,(205) 652-9931,-88.201233,32.600854
Steelwood Country Club,31925 Steelwood Ridge Rd,Loxley,AL,31925,Private,18 Holes,(251) 964-4800,-87.722198,30.698332
Crenshaw County Rec Club,265 Mount Ida Highway,Luverne,AL,36049,Private,9 Holes,(334) 335-5404,-86.267266,31.702645
Marion Military Institute Golf Course,1101 Washington St,Marion,AL,36756-3213,Public,9 Holes,(334) 683-2178,-87.318588,32.624491
Cypress Tree Golf Courses,1461 March Street,Montgomery,AL,36112,Semi Private,36 Holes,(334) 263-7587,-86.360922,32.390946
Lakeview Country Club,21026 Agnes Dr,McCalla,AL,21026,Public,9 Holes,(205) 477-6125,-87.144449,33.281056
Cloudmont Ski & Golf Resort,721 County Road 614,Mentone,AL,35984-2434,Public,9 Holes,(256) 634-4344,-85.603204,34.537302
Colonial Golf Course,400 Colonial Dr,Meridianville,AL,35759-1008,Public,18 Holes,(256) 828-0431,-86.597048,34.873146
Fox Run Golf Course,870 McCollum Rd,Meridianville,AL,35759-1716,Public,18 Holes,(256) 828-7564,-86.537211,34.87911
The Pines Golf Club,307 Deatsville Hwy,Millbrook,AL,36054-1634,Municipal,18 Holes,(334) 285-7529,-86.375389,32.521738
Azalea City Golf Course,1000 Gaillard Dr,Mobile,AL,36608-2512,Municipal,18 Holes,(251) 342-4221,-88.162398,30.710567
Gulf Pines Golf Club,167 Old Bay Front Dr,Mobile,AL,36615-1304,Municipal,18 Holes,(251) 431-6413,-88.061674,30.640932
Magnolia Grove Golf Club,7001 Magnolia Grove Pkwy,Mobile,AL,36618-4824,Municipal,54 Holes,(251) 645-0075,-88.21261,30.737516
Country Club of Mobile,4101 Wimbledon Dr W,Mobile,AL,36608-2361,Private,27 Holes,(251) 342-5138,-88.15335,30.68628
Heron Lakes Country Club,3851 Government Blvd,Mobile,AL,36693-4314,Private,18 Holes,(251) 666-7070,-88.133828,30.642802
Spring Hill College Golf Course,4000 Dauphin St,Mobile,AL,36608-1780,Public,18 Holes,(251) 380-4655,-88.146485,30.685821
Vanity Fair Golf & Tennis Club,613 Golf Dr,Monroeville,AL,36460-2287,Private,18 Holes,(251) 575-4700,-87.340089,31.519735
Montevallo Golf Club,1481 Shelby County Highway 204,Montevallo,AL,35115,Municipal,18 Holes,(205) 665-8057,-86.873531,33.102673
Gateway Park Executive Golf Course,3800 Davenport Pkwy,Montgomery,AL,36105,Municipal,18 Holes,(334) 284-7920,-86.326554,32.335042
Lagoon Park Golf Course,2855 Lagoon Park Dr,Montgomery,AL,36109-1112,Municipal,18 Holes,(334) 271-7000,-86.221294,32.400294
Arrowhead Golf & Country Club,50 Ocala Dr,Montgomery,AL,36117-4139,Private,18 Holes,(334) 272-7180,-86.144678,32.378926
Bonnie Crest Country Club,1410 Federal Dr,Montgomery,AL,36107-1124,Semi Private,18 Holes,(334) 272-9316,-86.272271,32.398724
Montgomery Country Club,3001 Narrow Lane Rd,Montgomery,AL,36106-2216,Semi Private,18 Holes,(334) 264-7198,-86.282368,32.351498
Wynlakes Golf & Country Club,7900 Wynlakes Blvd,Montgomery,AL,36117-5165,Semi Private,18 Holes,(334) 279-0297,-86.149479,32.349475
Cottonwood Golf Club,7160 Byron Nelson Blvd,Montgomery,AL,36116-6046,Public,18 Holes,(334) 281-3344,-86.174376,32.247291
Magnolia Golf Club,3346 Elsberry Rd,Montgomery,AL,36116-3018,Public,18 Holes,(334) 288-3310,-86.270866,32.318126
Tallapoosa Lakes Golf Course,1501 Dozier Rd,Montgomery,AL,36117-6422,Public,36 Holes,(334) 260-4900,-86.135717,32.419455
Green Briar Golf Course,1130 Morris Majestic Rd,Morris,AL,35116-1832,Public,18 Holes,(205) 647-2680,-86.792639,33.75806
Deer Run Golf Course,1175 County Road 100,Moulton,AL,35650-5117,Municipal,18 Holes,(256) 974-7384,-87.311735,34.433911
Cypress Lakes Golf & Country Club,1311 E 6th St,Muscle Shoals,AL,35661-3519,Public,18 Holes,(256) 386-7783,-87.659718,34.730226
The Shoals Golf Club,990 Sunbelt Pkwy,Muscle Shoals,AL,35661-4672,Public,36 Holes,(256) 446-5111,-87.535206,34.817814
Hidden Meadows Golf Course,13000 Old Cove Rd,Northport,AL,13000,Public,18 Holes,(205) 339-3673,-87.638899,33.293178
Heritage Golf Course,671 Heritage Rd,Oneonta,AL,35121-3022,Public,18 Holes,(205) 274-2390,-86.46493,33.973678
Limestone Springs Golf Club,3000 Colonial Dr,Oneonta,AL,35121-3560,Public,18 Holes,(205) 274-4653,-86.56757,33.895796
Whispering Pines Golf Club,765 Morton Rd,Oneonta,AL,35121-7316,Public,18 Holes,(205) 274-9136,-86.407295,33.92928
Saugahatchee Country Club,3800 Bent Creek Rd,Opelika,AL,36804-7602,Private,18 Holes,(334) 749-3441,-85.417515,32.600131
Grand National Golf Course,3000 Sunbelt Pkwy,Opelika,AL,36801-1117,Public,54 Holes,(334) 749-9011,-85.426491,32.676058
Opp Country Club,Highway 84 West,Opp,AL,36467,Private,9 Holes,(334) 493-4342,-86.284816,31.279539
Orange Beach Golf Center,4700 Easy St,Orange Beach,AL,36561,Municipal,9 Holes,(251) 981-4653,-87.60668,30.290876
The Robert Trent Jones Golf Trail@ Hampton Cove,450 Old Highway 431,Owens Cross Roads,AL,35763-9304,Public,54 Holes,(256) 551-1818,-86.471284,34.659987
Cider Ridge Golf Club,200 Apple Blossom Way,Oxford,AL,36203-4806,Public,18 Holes,(256) 831-7222,-85.750792,33.594656
Ozark Country Club,815 Country Club Dr,Ozark,AL,36360-4731,Public,18 Holes,(334) 774-2615,-85.614841,31.474832
Ballantrae Golf Course,1300 Ballantrae Club Dr,Pelham,AL,35124-6200,Municipal,18 Holes,(205) 620-4653,-86.755997,33.260424
Oak Mt State Park Golf Course,Oak Mt State Park,Pelham,AL,35124,Municipal,27 Holes,(205) 620-2522,-86.760144,33.332374
Pell City Country Club,2021 Golf Course Rd,Pell City,AL,35128,Private,18 Holes,(205) 338-2066,-86.258419,33.559699
Pine Harbor Golf & Racquet Club,1218 Pine Harbor Rd,Pell City,AL,35128-6717,Semi Private,18 Holes,(205) 338-4354,-86.272062,33.524899
Lakewood Golf Course,2800 Lakewood Dr,Phenix City,AL,36867-2000,Municipal,18 Holes,(334) 291-4726,-85.020077,32.504099
Cumberland Lake Country Club,2150 Cumberland Lake Dr,Pinson,AL,35126-2042,Public,18 Holes,(205) 680-4653,-86.670198,33.770023
Marriott Lakewood Golf Club,1 Grand Blvd,Point Clear,AL,36564,Semi Private,36 Holes,(251) 928-1406,-87.918457,30.473009
Prattville Country Club,723 Highway 82 Bypass,Prattville,AL,36067,Private,18 Holes,(334) 365-4497,-86.490568,32.45151
Capitol Hill Golf Course,2600 Constitution Ave,Prattville,AL,36066-7713,Public,54 Holes,(334) 285-1114,-86.402021,32.447063
Hidden Oaks Golf Club,469 Kinzie Ln,Rainbow City,AL,35906-9011,Public,9 Holes,(256) 413-4653,-86.065727,33.95149
Hidden Oaks Par 3 Golf Course,463 Kinzie Ln,Rainbow City,AL,35906,Public,9 Holes,(256) 413-4653,-86.065718,33.951858
Rainsville Golf & Country Club,390 Pine Hill Rd,Rainsville,AL,35986-4664,Public,9 Holes,(256) 638-8846,-85.806916,34.475419
Redmont Recreation Club Golf Course,1400 Redmont Dr Nw,Red Bay,AL,35582,Public,18 Holes,(256) 356-8070,-88.147419,34.46454
The Knolls Country Club,Highway 30 East,Reform,AL,35481,Private,9 Holes,(205) 375-2173,-87.980425,33.374022
Roanoke Country Club,1172 Country Club Rd,Roanoke,AL,36274-4055,Public,9 Holes,(334) 863-6416,-85.382288,33.132333
Joe Wheeler State Park Golf Course,201 McLean Dr,Rogersville,AL,35652-6405,Municipal,18 Holes,(256) 247-9308,-87.319689,34.827766
Twin Pines Golf Course,1855 Country Club Dr,Russellville,AL,35654-3208,Semi Private,18 Holes,(256) 332-4191,-87.675625,34.571422
Goose Pond Colony Golf Course,417 Ed Hembree Dr,Scottsboro,AL,35769-7859,Municipal,18 Holes,(256) 574-5353,-86.079295,34.598099
Goose Pond Plantation Golf Course,67 Plantation Pointe Rd,Scottsboro,AL,35768-7178,Municipal,18 Holes,(256) 259-0101,-86.130105,34.639542
Scottsboro Golf & Country Club,Highway #79 Bypass,Scottsboro,AL,35768,Private,9 Holes,(256) 574-1356,-86.041767,34.637641
Broken Arrow Golf Course,399 Broken Arrow Dr,Scottsboro,AL,35769-8519,Public,18 Holes,(256) 582-9888,-86.069645,34.609413
Selma Country Club,103 W Dallas Ave,Selma,AL,36701-6560,Semi Private,18 Holes,(334) 874-6907,-87.044127,32.40602
Craig Golf Course,262 Craig Industrial Park,Selma,AL,36701-8139,Public,9 Holes,(334) 872-4451,-86.986899,32.36128
Occidental Chemical Co. Golf Course,1000 N Wilson Dam Hwy,Sheffield,AL,35660,Semi Private,9 Holes,(256) 389-2301,-87.692605,34.75973
Shoal Creek,100 New Williamsburg Dr,Shoal Creek,AL,35242-5940,Private,27 Holes,(205) 991-9000,-86.615399,33.43884
TimberCreek Golf Club,9650 Timbercreek Blvd,Spanish Fort,AL,36527-5604,Public,54 Holes,(251) 621-9900,-87.85673,30.670241
Oak Hill Country Club,101 Country Club Rd,Sulligent,AL,35586-4462,Private,9 Holes,(205) 698-9918,-88.119665,33.837625
Sylacauga Country Club,1 Fairway Dr,Sylacauga,AL,35150,Private,18 Holes,(256) 249-8084,-86.241561,33.216314
FarmLinks Golf Club,2200 FarmLinks Blvd,Sylacauga,AL,35151,Public,18 Holes,(205) 403-4653,-86.419684,33.11773
Talladega Municipal Golf Course,65230 Hwy 77 North,Talladega,AL,65230,Municipal,18 Holes,(256) 362-8151,-86.107165,33.446152
Timber Ridge Golf Club,101 Ironaton Road,Talladega,AL,35160,Public,18 Holes,(256) 362-0346,-86.071216,33.435546
Lakeside Country Club,5881 Cherokee Trl,Tallassee,AL,36078-3803,Public,18 Holes,(334) 283-4090,-85.947715,32.609354
Meadowlake Golf Course,8350 Theodore Dawes Rd W,Theodore,AL,36582,Public,9 Holes,(251) 401-0274,-88.23757,30.580861
Pineview Country Club,1250 Country Club Dr,Thomasville,AL,36784,Private,9 Holes,(334) 636-5938,-87.762552,31.907746
Troy Country Club,1 Club Rd,Troy,AL,36079,Private,9 Holes,(334) 566-1169,-85.965345,31.778483
Trojan Oaks Golf Course,Troy St Univ  Adams Center 215,Troy,AL,36082-0001,Public,9 Holes,(334) 670-3377,-85.955571,31.802189
Trussville Country Club,7905 Roper Rd,Trussville,AL,35173-3105,Public,18 Holes,(205) 655-2095,-86.55624,33.603457
Ol' Colony Golf Complex,401 Old Colony Rd,Tuscaloosa,AL,35406-4200,Municipal,18 Holes,(205) 562-3201,-87.534657,33.260213
Woodland Forrest Country Club,5604 Woodland Forrest Dr,Tuscaloosa,AL,35405-5643,Private,18 Holes,(205) 556-1232,-87.46721,33.155495
Country Club of Tuscaloosa,3700 6th St,Tuscaloosa,AL,35401-1358,Semi Private,18 Holes,(205) 759-5535,-87.584279,33.205993
Indian Hills Country Club,1650 Highway 82,Tuscaloosa,AL,35406,Semi Private,18 Holes,(205) 349-1504,-87.541789,33.23371
NorthRiver Yacht Club,3100 Yacht Club Way NE,Tuscaloosa,AL,35406-1126,Semi Private,18 Holes,(205) 345-0202,-87.498139,33.294354
The Links At Tuscaloosa,1800 Links Blvd,Tuscaloosa,AL,35405-4871,Public,18 Holes,NA,-87.560594,33.155844
Spring Creek Golf Course,800 Woodmont Dr,Tuscumbia,AL,35674-3952,Municipal,9 Holes,(256) 386-5670,-87.695097,34.715528
Tennessee Valley Country Club,101 Maple St,Tuscumbia,AL,35674-4416,Private,9 Holes,(256) 383-3689,-87.704489,34.718458
Cherokee Ridge Country Club,4000 Cherokee Ridge Dr,Union Grove,AL,35175-7943,Semi Private,18 Holes,(256) 498-5300,-86.568835,34.419236
Union Springs Country Club,Country Club Drive,Union Springs,AL,36089,Private,9 Holes,(334) 738-5015,-85.72653,32.152813
Valley Grande Golf Club,1009 Warrior Dr,Valley Grande,AL,36701-1604,Public,18 Holes,(334) 877-4433,-87.115341,32.486742
Rolling Hills Golf Course,9565 Lee Rd 279,Valley,AL,36854-6811,Public,9 Holes,(334) 749-1972,-85.202628,32.702326
Old Overton Club,7251 Old Overton Club Dr,Vestavia Hills,AL,35242-2520,Private,18 Holes,(205) 972-9001,-86.681762,33.491622
Emerald Mountain Golf Club,245 Mountain View Rd,Wetumpka,AL,36093-3846,Public,18 Holes,(334) 514-8082,-86.105816,32.448205
Quail Walk Country Club,2110 Holtville Rd,Wetumpka,AL,36092-5706,Public,18 Holes,(334) 567-5014,-86.227318,32.563393
Sumter Country Club,51880 Country Club Rd,York,AL,51880,Private,9 Holes,(205) 392-9911,-88.313146,32.510017
Eagle Crest Golf Course,3926 Golf Course Dr,Alma,AR,72921-7896,Public,18 Holes,(479) 632-8857,-94.16868,35.500064
River Valley Golf Course,5829 Highway 64 E,Alma,AR,72921-7900,Public,18 Holes,(479) 997-1188,-94.15348,35.493705
Turtle Pointe Golf Club,182 Club Dr,Arkadelphia,AR,71923-8102,Public,18 Holes,(870) 246-6642,-93.09088,34.14483
Millwood Landing Golf & R V  Resort,596 Highway 317,Ashdown,AR,71822-8467,Public,18 Holes,(870) 898-6674,-94.01366,33.712909
Southern Fairways LLC,2104 Buck Wright Road,Ashdown,AR,71822,Public,18 Holes,(870) 898-5649,-94.131614,33.692565
Cypress Creek Country Club,8302 Highway #64 East,Augusta,AR,72006,Private,9 Holes,(870) 347-3211,-91.274188,35.284923
Bald Knob Country Club,216 Country Club Road,Bald Knob,AR,72010,Public,9 Holes,(501) 724-3537,-91.591594,35.313464
Deer Trails Golf Course,Bldg #3910 Arkansas Boulevard,Barling,AR,72923,Public,9 Holes,(479) 478-6971,-94.303348,35.296597
Batesville Municipal Golf Course,1850 Chaney Dr,Batesville,AR,72501-7638,Municipal,9 Holes,(870) 698-2431,-91.636614,35.758832
Batesville Country Club,1100 24th St,Batesville,AR,72501-7438,Private,9 Holes,(870) 793-2525,-91.62625,35.768137
The Course At Eagle Mountain,800 Gap Rd,Batesville,AR,72501-8685,Public,18 Holes,(870) 612-8000,-91.583536,35.748918
Bella Vista Country Club,101 Town Ctr NE,Bella Vista,AR,72714-2403,Private,126 Holes,(479) 855-8130,-94.193794,36.456498
Longhills Golf Club,327 Highway 5 N,Benton,AR,72015-8554,Public,18 Holes,(501) 316-3000,-92.551093,34.60085
Silver Springs Country Club,6301 Trace Creek Rd,Benton,AR,72015-6972,Public,18 Holes,(501) 778-4121,-92.653712,34.530638
Links At Bentonville Golf & Athletic Club,2101 SE Hilton Head Dr,Bentonville,AR,72712-6352,Public,9 Holes,(479) 271-0163,-94.184783,36.349281
Carroll County Golf Course,Highway 62 West,Berryville,AR,72616,Public,9 Holes,(870) 423-3280,-93.595458,36.381646
De Gray State Park Golf Course,2027 State Park Maintenance Rd,Bismarck,AR,71929-7308,Municipal,18 Holes,(501) 865-2807,-93.163421,34.255162
Caddo Creek Golf Course,4009 Highway 7,Bismarck,AR,71929-7165,Public,9 Holes,(501) 865-3666,-93.159963,34.280331
Thunder Bayou Golf Links,1229 Perimeter Rd,Blytheville,AR,72315-6234,Municipal,18 Holes,(870) 532-2621,-89.920237,35.950081
Blytheville Country Club,Highway 61 North,Blytheville,AR,72315,Private,18 Holes,(870) 763-7821,-89.911007,35.950614
Cherokee Creek Golf Club,Highway 10 East,Booneville,AR,72927,Public,18 Holes,(479) 675-5858,-93.894188,35.14363
Brinkley Country Club,Highway 70 West,Brinkley,AR,72021,Private,9 Holes,(870) 734-2967,-91.228206,34.856172
Hurricane Golf and Country Club,4300 Hurricane Dr,Bryant,AR,72022-6201,Semi Private,18 Holes,(501) 847-2609,-92.521604,34.605737
Rivercliff Golf Club,110 Club House Lane,Bull Shoals,AR,72619,Public,18 Holes,(870) 445-4800,-92.585217,36.364377
Rolling Hills Country Club Inc,271 Country Club Rd,Cabot,AR,72023-7303,Private,18 Holes,(501) 843-5231,-91.979856,34.935244
Greystone Country Club,57 Greystone Blvd,Cabot,AR,72023-8175,Public,36 Holes,(501) 941-4441,-92.063556,35.022134
Camden Country Club,1915 W Washington St,Camden,AR,71701-3133,Semi Private,18 Holes,(870) 836-8414,-92.861865,33.585389
Highland Golf Course,707 Highway 274,Camden,AR,71701-7350,Public,9 Holes,(870) 574-9080,-92.735186,33.615139
The Creeks Golf Course LLC,1499 S Main St,Cave Springs,AR,72718-9400,Public,18 Holes,(479) 248-1000,-94.236941,36.246757
Cherokee Village North Course,75 Pro Shop Rd,Cherokee Village,AR,72529-2611,Semi Private,18 Holes,(870) 257-3430,-91.551334,36.317763
Cherokee Village South Course,#5 Laguna Drive,Cherokee Village,AR,72529,Semi Private,18 Holes,(870) 257-2555,-91.595674,36.288613
Pines Golf Club,18340 Hwy 79,Clarendon,AR,18340,Public,9 Holes,(870) 462-8374,-91.154559,34.69131
Clarksville Country Club,401 W Country Club Dr,Clarksville,AR,72830-9108,Public,9 Holes,(479) 754-3026,-93.487037,35.450776
Red River Golf Club Inc,360 Factory Rd,Clinton,AR,72031-6742,Public,9 Holes,(501) 745-8774,-92.445717,35.584084
Centennial Valley Golf Course,1600 Centennial Club Dr,Conway,AR,72034-8111,Semi Private,18 Holes,(501) 513-2522,-92.501924,35.101208
Conway Country Club,555 Country Club Rd,Conway,AR,72034-7279,Semi Private,18 Holes,(501) 329-9887,-92.480488,35.086774
Cadron Valley Country Club,3400 Irby Dr,Conway,AR,72034-7313,Public,9 Holes,(501) 336-0909,-92.483753,35.107429
The Greens At Nutters Chapel,1705 S Salem Rd,Conway,AR,72034,Public,18 Holes,(501) 329-5867,-92.473809,35.049963
Victory Lake Golf Course,536 E Elm St,Corning,AR,72422-7511,Municipal,9 Holes,(870) 857-6378,-90.571705,36.40584
Prairie Country Club,Highway #52 North,Crossett,AR,71635,Private,9 Holes,(870) 364-2456,-91.896602,33.175525
Chamberlyne Country Club,10614 Country Club Dr,Danville,AR,10614,Public,18 Holes,(479) 495-4100,-93.371005,35.105832
Lions Den Golf Club,11044 Bay Ridge Dr,Dardanelle,AR,11044,Public,18 Holes,(479) 229-4162,-93.215378,35.25786
De Queen Country Club and Lodge,Route 70 East,De Queen,AR,71832,Private,18 Holes,(870) 642-8800,-94.278822,34.046782
Oak Hills Country Club,RR 1,De Witt,AR,72042,Private,9 Holes,(870) 946-3891,-91.385147,34.305869
Diamond Hills Country Club,20701 Highway 7 North,Diamond City,AR,20701,Public,18 Holes,(870) 422-7613,-92.922129,36.46558
Tannenbaum Golf Club,5 Kustrin Dr,Drasco,AR,72530-9151,Public,18 Holes,(501) 362-5577,-92.056779,35.559388
Lions Club Municipal Golf Course,East 19th & Martin Luther King Blvd,El Dorado,AR,71730,Municipal,18 Holes,(870) 881-4180,-92.647674,33.236988
El Dorado Golf & Country Club,101 Shady Side St,El Dorado,AR,71730-3147,Private,18 Holes,(870) 863-7380,-92.661157,33.238957
The Resurrection Course at Mystic Creek,1000 N Wyatt,El Dorado,AR,71730,Public,18,(870) 312-0723,-92.731619,33.227591
England Country Club,Highway 161,England,AR,72046,Private,9 Holes,(501) 842-2781,-92.011471,34.542492
Indian Hills Country Club,Snead Drive,Fairfield Bay,AR,72088,Private,18 Holes,(501) 884-3852,-92.249026,35.619657
Mountain Ranch Golf Club,820 Lost Creek Pkwy,Fairfield Bay,AR,72088-3630,Public,18 Holes,(501) 884-3400,-92.288285,35.610854
Golf Club At Valley View,11520 Club House Pkwy,Farmington,AR,11520,Public,18 Holes,(479) 267-1096,-94.262382,36.012815
Fayetteville Country Club,3335 S Country Club Dr,Fayetteville,AR,72701-7156,Private,18 Holes,(479) 442-5112,-94.157179,36.029947
Paradise Valley Athletic Club,3728 N Old Missouri Rd,Fayetteville,AR,72703-6502,Private,18 Holes,(479) 521-5841,-94.130007,36.118802
Blessings Golf Club,5826 Clear Creek Blvd,Fayetteville,AR,72704-9355,Semi Private,18 Holes,(479) 444-6330,-94.201823,36.13177
Lakeside Par 3,200 W Village Lake Dr,Fayetteville,AR,72703-4092,Public,9 Holes,(479) 442-7748,-94.159746,36.09962
Razorback Park Golf Course,2514 W Lori Dr,Fayetteville,AR,72704,Public,18 Holes,(479) 443-5862,-94.19474,36.097964
Stonebridge Meadows Golf Club,3495 E Goff Farm Rd,Fayetteville,AR,72701-7527,Public,18 Holes,(479) 571-3673,-94.112647,36.045276
The Links At Fayetteville,2300 W Player Ln,Fayetteville,AR,72704,Public,9 Holes,(479) 966-4330,-94.211993,36.079466
Fordyce Country Club,Country Club Road,Fordyce,AR,71742,Private,9 Holes,(870) 352-2264,-92.469942,33.813018
Forrest City Country Club,922 E Cross St,Forrest City,AR,72335-3959,Private,18 Holes,(870) 633-3380,-90.780207,35.008165
Ridgecrest Country Club,Barrow Hill Road,Forrest City,AR,72335,Private,9 Holes,(870) 633-9863,-90.767642,35.060809
Ben Geren Regional Park Golf Course,7200 Zero St,Fort Smith,AR,72903-6589,Municipal,45 Holes,(479) 646-5301,-94.354514,35.326029
Fianna Hills Country Club,1 Essex Pl,Fort Smith,AR,72908-9040,Semi Private,18 Holes,(479) 646-5134,-94.413055,35.293613
Hardscrabble Country Club,5211 Cliff Dr,Fort Smith,AR,72903-4630,Semi Private,18 Holes,(479) 783-3731,-94.384052,35.349195
Fort Smith Country Club,5500 Midland Blvd,Fort Smith,AR,72904-1712,Public,9 Holes,(479) 783-4653,-94.370373,35.425037
The First Tee of Fort Smith  The Jack Stephens Yo,5800 Geren Rd,Fort Smith,AR,72916-9730,Public,9 Holes,(479) 648-9833,-94.370224,35.318144
The Links of Fort Smith,5100 S Zero St,Fort Smith,AR,72903-6944,Public,9 Holes,(479) 648-9691,-94.37663,35.326946
Glenwood Country Club,584 Highway 70 E,Glenwood,AR,71943-8904,Public,18 Holes,(870) 356-4422,-93.505799,34.338358
Persimmon Ridge Golf Club,1 Fairway Dr,Greenbrier,AR,72058-8806,Public,9 Holes,(501) 679-5423,-92.31987,35.279956
Vache Grasse Country Club,891 Country Club Road,Greenwood,AR,72936,Public,18 Holes,(479) 996-4191,-94.226664,35.200598
Red Martin Country Club,1661 Highway 53 S,Gurdon,AR,71743-9326,Private,9 Holes,(870) 353-9981,-93.142201,33.872164
Harrison Country Club,Highway 62-65 North,Harrison,AR,72601,Public,18 Holes,(870) 741-2443,-93.127951,36.263359
The Links At Harrison,1919 Club Cir,Harrison,AR,72601-8886,Public,9 Holes,(870) 365-3621,-93.137437,36.253133
Grand Prairie Country Club,682 Country Club Rd,Hazen,AR,72064-9893,Public,9 Holes,(870) 255-3043,-91.575256,34.822943
Red Apple Inn & Country Club,325 Club Dr,Heber Springs,AR,72543-7917,Semi Private,18 Holes,(501) 362-3131,-92.106171,35.496522
Lost Creek Golf Club,1104 Industrial Park Rd,Heber Springs,AR,72543-8526,Public,18 Holes,(501) 362-2582,-91.966041,35.504502
Riverland Country Club,175 Riverland Dr,Heber Springs,AR,72543-8713,Public,9 Holes,(501) 362-7541,-91.961962,35.486465
Thunderbird Country Club,2909 Case Ford Rd,Heber Springs,AR,72543-6004,Public,9 Holes,(501) 362-5200,-92.039816,35.523462
Holiday Island Golf Course,1 Country Club Dr,Holiday Island,AR,72631-5106,Public,27 Holes,(479) 253-9511,-93.72561,36.461261
Hope Country Club,3605 Patmos Rd,Hope,AR,71801-9328,Private,18 Holes,(870) 777-8182,-93.579263,33.631352
Cedar Glade Golf Club,900 4th Street,Horseshoe Bend,AR,72512,Public,18 Holes,(870) 670-4653,-91.759992,36.218556
The Course At Turkey Mountain,3 Club Rd,Horseshoe Bend,AR,72512-2717,Public,18 Holes,(870) 670-5252,-91.764348,36.229235
Belvedere Country Club,385 Belvedere Dr,Hot Springs National Park,AR,71901-9145,Public,18 Holes,(501) 321-3591,-93.009484,34.546205
Balboa Golf Course,111 Balboa Way,Hot Springs Village,AR,71909-6919,Private,18 Holes,(501) 922-1504,-92.938687,34.634737
Coronado Golf Course,199 Surtidor Way,Hot Springs Village,AR,71909-6832,Private,18 Holes,(501) 922-2355,-92.946674,34.643742
Cortez Golf Course,299 Cortez Rd,Hot Springs Village,AR,71909-3609,Private,27 Holes,(501) 922-1590,-92.985694,34.699148
DeSoto Golf Course,102 Clubhouse Dr,Hot Springs Village,AR,71909-3046,Private,18 Holes,(501) 922-0001,-93.042658,34.667498
Granada Golf Course,250 Maderas Dr,Hot Springs Village,AR,71909-7989,Private,18 Holes,(501) 922-3095,-92.86302,34.649326
Isabella Golf Course,110 Iniciador Way,Hot Springs Village,AR,71909-7827,Private,36 Holes,(501) 922-5505,-92.86296,34.635184
Magellan Golf Course,451 Ponce de Leon Dr,Hot Springs Village,AR,71909-8101,Private,18 Holes,(501) 922-4497,-92.89353,34.626501
Ponce De Leon Golf Course,300 Ponce de Leon Dr,Hot Springs Village,AR,71909-8102,Private,18 Holes,(501) 922-4250,-92.893593,34.650653
Diamante Golf & Country Club,2000 Country Club Dr,Hot Springs Village,AR,71909-8500,Semi Private,18 Holes,(501) 922-4191,-92.863411,34.641651
Diamondhead Golf & Country Club,245 Independence Dr,Hot Springs,AR,71913-7730,Public,18 Holes,(501) 262-3734,-92.949232,34.437534
Hot Springs Country Club,101 Country Club Dr,Hot Springs,AR,71901-8035,Public,36 Holes,(501) 624-2661,-93.030801,34.480592
Lakeside Golf Club,418 Wilsons Lake Rd,Hot Springs,AR,71901-7954,Public,9 Holes,(501) 262-1826,-92.979683,34.456312
Lakeview Golf Club,121 Essex Park Ter,Hot Springs,AR,71901-8352,Public,9 Holes,(501) 262-0050,-92.983786,34.470837
Magic Hills Public Golf Course,1873 E Grand Ave,Hot Springs,AR,71901-4891,Public,9 Holes,(501) 620-4567,-93.013932,34.513328
Bunker Hill Golf Course,8 Bunker Hill Dr,Houston,AR,72070-8120,Public,18 Holes,(501) 759-1200,-92.669502,35.070607
Oakridge Golf Course,Highway 74 West,Huntsville,AR,72740,Public,18 Holes,(479) 738-6401,-93.765053,36.084287
Foxwood Golf Club,701 Foxwood Dr,Jacksonville,AR,72076-2624,Public,18 Holes,(501) 982-7508,-92.083817,34.89208
Hickory Creek Golf Course,8933 Arrington Rd,Jacksonville,AR,72076-9749,Public,18 Holes,(501) 988-4257,-92.167757,34.948717
Jonesboro Country Club,1408 E Nettleton Ave,Jonesboro,AR,72401-5160,Private,18 Holes,(870) 932-2410,-90.692519,35.82864
RidgePointe Country Club,2510 Ridgepointe Dr,Jonesboro,AR,72404-6845,Private,18 Holes,(870) 931-5000,-90.77086,35.813537
Links At Jonesboro,1424 Links Cir,Jonesboro,AR,72404-0698,Public,9 Holes,(870) 932-2578,-90.681585,35.792648
Sage Meadows Golf Course,4406 Clubhouse Dr,Jonesboro,AR,72401-8034,Public,18 Holes,(870) 932-4420,-90.636611,35.887027
Lake Village Country Club,3309 Lakeshore Dr N,Lake Village,AR,71653-9532,Public,9 Holes,(870) 265-3146,-91.263602,33.36141
West Helena Municipal Golf Course,587 Phillips 221,Lexa,AR,72355-8497,Municipal,9 Holes,(870) 572-1490,-90.66307,34.576837
Deer Run Golf Course LRAFB,1075 Cannon Dr,Little Rock Air Force Base,AR,72099-4942,Semi Private,18 Holes,(501) 987-6825,-92.146144,34.895409
Hindman Golf Course,60 Brookview Dr,Little Rock,AR,72209-2017,Municipal,18 Holes,(501) 565-6450,-92.357074,34.694825
Rebsamen Park Golf Course,3400 Rebsamen Park Rd,Little Rock,AR,72202,Municipal,27 Holes,(501) 666-7965,-92.317886,34.779182
War Memorial Golf Course,5511 W Markham St,Little Rock,AR,72205-3411,Municipal,18 Holes,(501) 663-0854,-92.334989,34.751879
Country Club of Little Rock,4200 Country Club Blvd,Little Rock,AR,72207-2028,Private,18 Holes,(501) 663-4189,-92.322689,34.771807
Pleasant Valley Country Club,2 Pleasant Valley Dr,Little Rock,AR,72212-3435,Private,18 Holes,(501) 225-2234,-92.405525,34.779389
Chenal Country Club,10 Chenal Club Blvd,Little Rock,AR,72223-9554,Semi Private,36 Holes,(501) 821-7565,-92.473894,34.780896
Eagle Hill Golf & Athletic Club,3 Eagle Hill Ct Ste 3A,Little Rock,AR,72210-8059,Semi Private,18 Holes,(501) 455-8848,-92.42943,34.675311
The First Tee of Central Arkansas,#1 The First Tee Way,Little Rock,AR,72204,Public,27 Holes,(501) 562-4653,-92.347679,34.711672
Lonoke Golf Course,505 Mallard Point Dr,Lonoke,AR,72086-8293,Public,18 Holes,(501) 676-0542,-91.924208,34.79164
Pine Hills Golf & Tennis Club,3111 Ouachita 67,Louann,AR,71751-8629,Private,9 Holes,(870) 725-2371,-92.721215,33.405716
The Links at Lowell,105 N Dixieland St,Lowell,AR,72745-8739,Public,9 Holes,(479) 770-6066,-94.145548,36.254758
Lakeview Country Club,8500 Castle Valley Rd,Mabelvale,AR,72103-2800,Public,18 Holes,(501) 562-1814,-92.3651,34.634354
Meadowbrook Golf and Country Club,6396 N State Highway 109,Magazine,AR,72943-8921,Public,18 Holes,(479) 963-8025,-93.761569,35.221893
Magnolia Country Club,1711 Highway 79 S,Magnolia,AR,71753-8320,Private,18 Holes,(870) 234-6484,-93.214085,33.196322
Malvern Country Club,473 Clubhouse Ln,Malvern,AR,72104-6347,Private,18 Holes,(501) 337-1482,-92.737872,34.285422
Big Lake Country Club,Highway 77 North,Manila,AR,72442,Public,9 Holes,(870) 561-9988,-90.172912,35.89492
Marianna Country Club,418 W Chestnut St,Marianna,AR,72360-2115,Private,9 Holes,(870) 295-5270,-90.771351,34.774623
Marion Golf & Athletic Club,303 Club Cir,Marion,AR,72364-1602,Semi Private,18 Holes,(870) 739-6305,-90.20577,35.197191
Three Rivers Country Club,34441 Country Club Rd,Marked Tree,AR,34441,Public,9 Holes,(870) 358-3385,-90.42004,35.564851
Maumelle Golf & Country Club,100 Club Manor Dr,Maumelle,AR,72113-6400,Private,18 Holes,(501) 851-3700,-92.409534,34.846844
The Country Club of Arkansas,3 Country Club Cir,Maumelle,AR,72113-6578,Public,18 Holes,(501) 851-0095,-92.397051,34.843243
Delta Country Club,Highway 4 East,Mc Gehee,AR,71654,Private,9 Holes,(870) 222-6622,-91.351071,33.602111
Coopers Hawk,Highway 69 Spur,Melbourne,AR,72556,Public,18 Holes,(870) 368-3280,-91.842261,36.067112
Mena Golf Club,500 Lyons Park Road,Mena,AR,71953,Public,9 Holes,(479) 243-0699,-94.205659,34.582534
Ouachita Golf & Country Club,123 Country Club Ln,Mena,AR,71953-7738,Public,9 Holes,(479) 394-5382,-94.180667,34.581392
Monticello Country Club,134 Golf Course Dr,Monticello,AR,71655-9206,Private,9 Holes,(870) 367-0384,-91.81124,33.657029
Morrilton Golf & Country Club,1000 Country Club Rd,Morrilton,AR,72110-3245,Private,18 Holes,(501) 354-0324,-92.770682,35.161546
Big Creek Golf & Country Club,452 Country Club Dr,Mountain Home,AR,72653-4118,Public,18 Holes,(870) 425-8815,-92.42101,36.320459
Twin Lakes Golf Club,70 Elk Way,Mountain Home,AR,72653-6601,Public,18 Holes,(870) 425-2028,-92.355932,36.353721
Pine Hills Golf Course,HC 71 Box 391,Mountain View,AR,72560,Municipal,9 Holes,(870) 269-5777,-92.09809,35.877822
Nashville Country Club,283 Country Club Rd,Nashville,AR,71852-7502,Private,18 Holes,(870) 845-9992,-93.89469,33.934454
Newport Country Club,703 Walker Dr,Newport,AR,72112-4095,Private,18 Holes,(870) 523-8904,-91.26923,35.598412
Village Creek Golf Inc,Stegal Road,Newport,AR,72112,Private,18 Holes,(870) 523-9676,-91.211681,35.607167
Burns Park Golf Course,30 Championship Dr,North Little Rock,AR,72118-3416,Municipal,36 Holes,(501) 791-8587,-92.303719,34.79521
Emerald Park Golf Course,2200 Fort Roots Dr,North Little Rock,AR,72114-1709,Municipal,9 Holes,(501) 244-8500,-92.28939,34.773243
Camp Robinson Golf Course,Camp Robinson,North Little Rock,AR,72118,Public,9 Holes,(501) 753-8877,-92.284638,34.829737
Pine Valley Golf Course,9311 Tom Box Road,North Little Rock,AR,72120,Public,18 Holes,(501) 835-3424,-92.211304,34.912735
Stonelinks Golf Course,110 Highway 391 N,North Little Rock,AR,72117-9519,Public,18 Holes,(501) 945-0945,-92.128135,34.745309
The Links At the Rock,12025 Paul Eells Dr,North Little Rock,AR,12025,Public,18 Holes,(501) 812-0304,-92.386995,34.836185
Osceola Golf Course,Country Club Road,Osceola,AR,72370,Municipal,9 Holes,(870) 563-6218,-90.017434,35.707895
Ozark Recreation Assoc.Club,6624 Ozark Lock & Dam Road,Ozark,AR,72949,Public,9 Holes,(479) 667-2908,-93.794279,35.475036
Paragould Country Club,3300 Pruetts Chapel Rd,Paragould,AR,72450-6025,Private,18 Holes,(870) 239-2328,-90.530849,36.037997
Fox Hills Golf Club,2105 Country Club Rd,Paragould,AR,72450-1958,Public,18 Holes,(870) 236-7847,-90.513536,36.070946
Big Sugar Golf Club,1101 Sugar Creek Rd,Pea Ridge,AR,72751-3736,Public,18 Holes,(479) 451-9550,-94.119635,36.421723
Walnut Lake Country Club,100 Country Club Lane,Pickens,AR,71662,Private,9 Holes,(870) 382-4388,-91.483168,33.846977
Sugar Creek Country Club,Country Club Road,Piggott,AR,72454,Public,9 Holes,(870) 598-3515,-90.198594,36.392341
Jaycee Memorial Golf Course,Oakland Park Dr,Pine Bluff,AR,71601,Municipal,9 Holes,(870) 536-5241,-92.03916,34.238235
Pine Bluff Country Club,1100 Country Club Ln,Pine Bluff,AR,71603,Private,18 Holes,(870) 535-3180,-92.012536,34.183317
Rosswood Country Club,7619 Rosswood Rd,Pine Bluff,AR,71603-8300,Private,18 Holes,(870) 535-0136,-92.015629,34.146433
Harbor Oaks Golf Club,1 Harbor Oaks Drive,Pine Bluff,AR,71611,Public,18 Holes,(870) 541-9010,-91.987768,34.248173
Pine Haven Golf Course,Pine Bluff Arsenal,Pine Bluff,AR,71602,Public,9 Holes,(870) 540-3779,-92.041522,34.239353
Rolling Hills Country Club,2365 Country Club Rd,Pocahontas,AR,72455-8825,Public,18 Holes,(870) 892-3323,-91.004824,36.320579
Galla Creek Golf Course,141 Golf Club Lane,Pottsville,AR,72858,Public,18 Holes,(479) 890-6653,-93.048974,35.236504
Prescott Country Club,Highway #67 North,Prescott,AR,71857,Private,9 Holes,(870) 887-5341,-93.375973,33.819946
Little Creek Recreation Club,Highway #22 West,Ratcliff,AR,72951,Public,9 Holes,(479) 635-5551,-93.891908,35.303258
Lost Springs Golf and Athletic Club,3024 N 22nd St,Rogers,AR,72756-2177,Semi Private,18 Holes,(479) 631-9988,-94.14766,36.360599
Pinnacle Country Club,3 Clubhouse Dr,Rogers,AR,72758-9563,Semi Private,18 Holes,(479) 273-0500,-94.199156,36.29657
Shadow Valley Country Club,7001 Shadow Valley Rd,Rogers,AR,72758-8148,Semi Private,18 Holes,(479) 203-0000,-94.21863,36.287578
Prairie Creek Country Club,1585 Roundtree Dr,Rogers,AR,72756,Public,18 Holes,(479) 925-2414,-94.06382,36.333097
The Greens on Blossom Way,2808 S 28th Pl,Rogers,AR,72758,Public,18 Holes,(479) 631-1811,-94.163407,36.29113
Alotian Golf Club,101 Alotian Dr,Roland,AR,72135-9558,Semi Private,18 Holes,(501) 379-2568,-92.581795,34.867591
Russellville Country Club,Highway 7,Russellville,AR,72801,Private,18 Holes,(479) 968-2660,-93.137174,35.340506
Searcy Country Club,2729 W Country Club Rd,Searcy,AR,72143-9627,Private,18 Holes,(501) 268-8577,-91.779285,35.235572
The Course at River Oaks,1 Golf Course Dr,Searcy,AR,72143-4552,Public,18 Holes,(501) 279-4653,-91.698172,35.253536
Sheridan Country Club,Highway 270 West,Sheridan,AR,72150,Private,9 Holes,(870) 942-2688,-92.449557,34.30182
The Links at Sherwood,3434 E Kiehl Ave,Sherwood,AR,72120-3316,Public,9 Holes,(501) 833-8010,-92.194969,34.832079
Dawn Hill Country Club,13890 Turnberry Ln,Siloam Springs,AR,13890,Public,18 Holes,(479) 524-4838,-94.518608,36.227188
Siloam Spring Country Club,801 N Country Club Rd,Siloam Springs,AR,72761-2918,Public,9 Holes,(479) 524-4269,-94.521842,36.193528
Springdale Country Club,4705 S Thompson St,Springdale,AR,72764-2547,Private,18 Holes,(479) 751-5185,-94.144024,36.141431
Brush Creek Golf Course,6220 Har Ber Ave,Springdale,AR,72762-7837,Public,9 Holes,(479) 750-0606,-94.198962,36.186549
The Links At Springdale,4097 Links Dr,Springdale,AR,72762-5610,Public,9 Holes,(479) 750-0216,-94.176033,36.170925
Stuttgart Country Club,Highway 130 East,Stuttgart,AR,72160,Private,18 Holes,(870) 673-8421,-91.526679,34.479492
Texarkana Country Club,1 Country Club Ln,Texarkana,AR,71854-7722,Private,18 Holes,(870) 772-8221,-94.017509,33.407402
Links at Texarkana,333 Links Dr,Texarkana,AR,71854-8549,Public,9 Holes,(870) 773-6154,-94.039214,33.472331
South Haven Golf Club,2321 Line Ferry Rd,Texarkana,AR,71854-7859,Public,18 Holes,(870) 774-5771,-94.030286,33.39901
Trumann Country Club,Country Club Boulevard,Trumann,AR,72472,Private,9 Holes,(870) 483-7627,-90.494768,35.660396
Cedars Country Club,1301 City Park Road,Van Buren,AR,72956,Public,9 Holes,(479) 474-2412,-94.346032,35.450315
Waldron Country Club,Rena Owens Dr,Waldron,AR,72958,Public,9 Holes,(479) 637-4374,-94.039063,34.944902
Walnut Ridge Country Club,249 Lawrence 408,Walnut Ridge,AR,72476-8148,Public,9 Holes,(870) 886-9816,-90.9211,36.131943
Warren Country Club,525 US Highway 63 S,Warren,AR,71671-9309,Private,9 Holes,(870) 226-9935,-92.068389,33.553631
Helena Country Club,719 Walden Ridge Drive,West Helena,AR,72390,Private,18 Holes,(870) 572-2877,-90.635456,34.531428
Meadowbrook Country Club,1250 W Broadway St,West Memphis,AR,72301-3807,Private,18 Holes,(870) 735-6767,-90.211742,35.146244
Little River Country Club,392 Country Club Rd,Winthrop,AR,71866-9537,Private,9 Holes,(870) 381-7408,-94.412623,33.924063
The Resort At Village Creek,4268 Hwy 284,Wynne,AR,72396-8031,Municipal,18 Holes,(870) 238-6500,-91.040046,35.193922
Crowley Ridge Country Club,768 Highway 64,Wynne,AR,72396-7415,Private,9 Holes,(870) 238-9918,-90.798047,35.25416
Ajo Country Club,77 W Mead Rd,Ajo,AZ,85321,Public,9 Holes,(520) 387-5011,-112.849399,32.45322
Alpine Country Club,100 Country Club Road,Alpine,AZ,85920,Public,9 Holes,(928) 339-4944,-109.1533,33.824583
Anthem Golf & Country Club,2708 W Anthem Club Dr,Anthem,AZ,85086-1092,Semi Private,36 Holes,(623) 742-6210,-112.118278,33.864935
Roadhaven Golf Course,1000 S Idaho Rd,Apache Junction,AZ,85219-6495,Semi Private,9 Holes,(480) 982-4653,-111.546234,33.40578
Apache Creek Golf Club,3401 S Ironwood Dr,Apache Junction,AZ,85220-7116,Public,18 Holes,(480) 982-2677,-111.563232,33.384605
Superstition Mountain Club,8000 E Club Village Dr,Apache Junction,AZ,85218-1801,Public,36 Holes,(480) 983-3200,-111.463136,33.382644
Arizona City Golf Club,13939 E Cleator,Arizona City,AZ,13939,Public,18 Holes,(520) 466-5327,-111.672419,32.75558
Coldwater Golf Club,100 N Clubhouse Dr,Avondale,AZ,85323-8262,Public,18 Holes,(623) 932-9000,-112.317851,33.445263
Mesa View Golf Course,4 Ash Street,Bagdad,AZ,86321,Public,9 Holes,(928) 633-2818,-113.174658,34.574866
San Pedro Golf Course,926 N Madison Ave,Benson,AZ,85602-6003,Public,18 Holes,(520) 586-7888,-110.298362,31.979607
Turquoise Hills Family Golf Center,800 E Country Club Rd,Benson,AZ,85602-7002,Public,18 Holes,(520) 586-2585,-110.28251,31.949359
Copper Canyon Golf Club,26577 W Desert Vista Blvd,Buckeye,AZ,26577,Public,18 Holes,(866) 450-9322,-112.618988,33.666066
Raven Golf Club At Verrado,4242 N Golf Dr,Buckeye,AZ,85396-3504,Public,18 Holes,(800) 426-6148,-112.515548,33.496201
Sundance Golf Club,900 North Sundance Pkwy,Buckeye,AZ,85326,Public,18 Holes,(623) 328-0400,-112.554279,33.439915
Chaparral Golf & Country Club,1260 Mohave Dr,Bullhead City,AZ,86442-7643,Public,9 Holes,(928) 758-6330,-114.603452,35.082277
Laughlin Ranch Golf Club,1360 William Hardy Dr,Bullhead City,AZ,86429-1146,Public,18 Holes,(866) 684-4653,-114.527224,35.137459
Desert Forest Golf Club,37207 N Mule Train Rd,Carefree,AZ,37207,Private,18 Holes,(480) 488-4589,-111.908507,33.821838
The Boulders Resort Golf Club,34831 N Tom Darlington Drive,Carefree,AZ,34831,Private,18 Holes,(480) 488-9028,-111.926371,33.803453
The Boulders Resort Golf Club,34831 N Tom Darlington Drive,Carefree,AZ,34831,Public,18 Holes,(480) 488-9028,-111.926371,33.803453
Dave White Municipal Golf Course,2121 N Thornton Rd,Casa Grande,AZ,85222-7825,Municipal,36 Holes,(520) 836-9216,-111.774245,32.900659
Francisco Grande Resort and Golf Course,12684 W Gila Bend Hwy,Casa Grande,AZ,12684,Public,18 Holes,(800) 237-4238,-111.847234,32.880215
Mission Royale Golf Club,11 Mission Royale South 1,Casa Grande,AZ,85222,Public,18 Holes,(520) 876-5335,-111.671746,32.870491
Palm Creek Golf & RV Resort,1110 N Henness Rd,Casa Grande,AZ,85222-5411,Public,18 Holes,(520) 421-7004,-111.705073,32.88689
Tierra Grande Golf Club,813 W Calle Rosa,Casa Grande,AZ,85222-8741,Public,18 Holes,(520) 723-9717,-111.765289,32.91618
Tatum Ranch Golf Course,29888 N Tatum Ranch Dr,Cave Creek,AZ,29888,Private,18 Holes,(480) 585-2399,-111.985701,33.75902
Dove Valley Ranch,33750 N Black Mountain Pkwy,Cave Creek,AZ,33750,Public,18 Holes,(480) 473-1444,-111.995124,33.790935
Rancho Manana Golf Club,5734 E Rancho Manana Blvd,Cave Creek,AZ,85331-8513,Public,18 Holes,(480) 488-0398,-111.955382,33.832267
Sun Lakes Country Club,25425 N Sunlakes Blvd,Chandler,AZ,25425,Private,18 Holes,(480) 895-9274,-111.880049,33.21159
Bear Creek Golf Course,500 E Riggs Rd,Chandler,AZ,85249-3605,Public,36 Holes,(480) 883-8200,-111.832128,33.2188
Ironwood Golf Club,550 W Champagne Dr,Chandler,AZ,85248-7837,Public,18 Holes,(480) 895-0614,-111.848682,33.224324
Lone Tree Golf Club,6262 S Mountain Blvd,Chandler,AZ,85249-3965,Public,18 Holes,(480) 219-0831,-111.78242,33.21515
Ocotillo Golf Resort,3751 S Clubhouse Dr,Chandler,AZ,85248-4200,Public,54 Holes,(888) 624-8899,-111.871932,33.249948
San Marcos Golf Resort,1 N San Marcos Pl,Chandler,AZ,85225-7870,Public,18 Holes,(480) 963-3358,-111.842187,33.303516
Springfield Golf Resort,1200 E St Andrews Blvd,Chandler,AZ,85249-4500,Public,18 Holes,(480) 895-5759,-111.821787,33.211449
SunBird Golf Club,6240 S Sunbird Blvd,Chandler,AZ,85249-4059,Public,18 Holes,(480) 883-0820,-111.809432,33.215485
Whirlwind Golf Club,5692 W North Loop Rd,Chandler,AZ,85226-5401,Public,36 Holes,(480) 940-1500,-111.986398,33.271388
Concho Valley Country Club,7 CR 5100,Concho,AZ,85924,Public,18 Holes,(928) 337-4644,-109.633792,34.435647
Verde Santa Fe Golf Club,645 Verde Sante Fe Pkwy,Cornville,AZ,86325,Public,18 Holes,(928) 634-5454,-111.964056,34.72721
Santa Rita Golf Club,16461 S Houghton Rd,Corona de Tucson,AZ,16461,Public,18 Holes,(520) 762-5620,-110.772278,31.956685
Pine Shadows Golf Course,1480 W Groseta Ranch Rd,Cottonwood,AZ,86326-8008,Public,9 Holes,(928) 634-1093,-112.045125,34.747123
Prescott Golf & Country Club,1030 N Prescott Country Club Blvd,Dewey,AZ,86327-5801,Public,18 Holes,(800) 717-7274,-112.26407,34.558657
Quail Wood Greens Golf Course,12200 E State Route 69,Dewey,AZ,12200,Public,18 Holes,(928) 772-0130,-112.250966,34.549587
Douglas Golf and Social Club,1372 E Fairway Dr,Douglas,AZ,85607-6261,Municipal,18 Holes,(520) 364-1588,-109.54111,31.37443
Greenlee Country Club,Highway 75,Duncan,AZ,85534,Private,9 Holes,(928) 687-1099,-109.193156,32.901486
River Run Golf Course,21 N Grist Mill Rd,Eagar,AZ,85925,Public,18 Holes,(928) 333-3382,-109.305222,33.951865
Pueblo Golf Course,11201 N El Mirage Rd,El Mirage,AZ,11201,Public,18 Holes,(623) 583-0425,-112.32455,33.58828
Grande Valley Golf Club,1505 N Toltec Rd,Eloy,AZ,85231-9619,Public,18 Holes,(520) 466-7734,-111.619345,32.769781
Robson Ranch Golf Club,5750 N Robson Blvd,Eloy,AZ,85131-3021,Public,18 Holes,(520) 426-3333,-111.640113,32.815564
Aspen Valley Golf Club,1855 N Continental Dr,Flagstaff,AZ,86004-7572,Private,18 Holes,(928) 527-4653,-111.59019,35.198908
Flagstaff Ranch Golf Club,3605 S Flagstaff Ranch Rd,Flagstaff,AZ,86001-2425,Private,18 Holes,(866) 435-2472,-111.711653,35.180781
Forest Highlands Golf Club,1 Forest Highlands,Flagstaff,AZ,86001-8401,Private,36 Holes,(888) 470-4607,-111.703289,35.116884
Pine Canyon Club,3000 S Clubhouse Cir,Flagstaff,AZ,86001,Semi Private,18 Holes,(928) 779-5800,-111.636054,35.165942
Continental Country Club,2380 N Oakmont Dr,Flagstaff,AZ,86004-7427,Public,18 Holes,(877) 526-5125,-111.579628,35.201932
3 Parks Fairways,3841 N Florence Blvd,Florence,AZ,85232-8346,Private,9 Holes,(520) 868-0110,-111.37906,33.074103
Oasis Golf Club,5764 E Hunt Hwy,Florence,AZ,85232-7150,Public,18 Holes,(480) 888-8890,-111.501682,33.093279
Poston Butte Golf Club,6100 W Merrill Ranch Pkwy,Florence,AZ,85132-6893,Public,18 Holes,(520) 723-1880,-111.468435,33.062366
Mountain View Golf Course,Bldg 15479,Fort Huachuca,AZ,15479,Public,18 Holes,(520) 533-7088,-110.312319,31.548298
We Ko Pa Golf Club,18200 E Toh Vee Cir,Fort McDowell,AZ,18200,Public,36 Holes,(866) 660-7700,-111.685984,33.581894
Desert Lakes Golf Course,5835 S Desert Lakes Dr,Fort Mohave,AZ,86426-9106,Public,18 Holes,(928) 768-1000,-114.585486,34.986853
Los Lagos Golf Course,6365 S Entrada Via Verdes,Fort Mohave,AZ,86427,Public,18 Holes,(928) 768-7778,-114.569636,34.971767
FireRock Country Club,16000 E Firerock Country Club Dr,Fountain Hills,AZ,16000,Private,18 Holes,(480) 836-8000,-111.737096,33.578224
Desert Canyon Golf Club,10440 N Indian Wells Dr,Fountain Hills,AZ,10440,Public,18 Holes,(480) 837-1173,-111.715104,33.581762
SunRidge Canyon Golf Club,13100 N Sunridge Dr,Fountain Hills,AZ,13100,Public,18 Holes,(800) 562-5178,-111.758059,33.604977
The Golf Club At Eagle Mountain,14915 E Eagle Mountain Pkwy,Fountain Hills,AZ,14915,Public,18 Holes,(480) 816-1234,-111.759809,33.577038
Seville Golf and Country Club,6683 S Clubhouse Dr,Gilbert,AZ,85297-4188,Semi Private,18 Holes,(866) 222-7432,-111.704411,33.226805
Greenfield Lakes Golf Club,2484 E Warner Rd,Gilbert,AZ,85296-9500,Public,18 Holes,(480) 503-0500,-111.736322,33.335911
Kokopelli Golf Course,1800 W Guadalupe Rd,Gilbert,AZ,85233-2926,Public,18 Holes,(480) 926-3589,-111.829554,33.365209
Trilogy Golf Club At Power Ranch,4415 E Village Pkwy,Gilbert,AZ,85297-8004,Public,18 Holes,(480) 988-0004,-111.694189,33.26039
Western Skies Golf Club,1245 E Warner Rd,Gilbert,AZ,85296-3109,Public,18 Holes,(480) 545-8542,-111.7637,33.335451
Arrowhead Country Club,19888 N 73rd Ave,Glendale,AZ,19888,Semi Private,18 Holes,(623) 561-9600,-112.214807,33.663652
Adobe Dam Family Golf Center,3847 W Pinnacle Peak Rd,Glendale,AZ,85310-4101,Public,9 Holes,(623) 581-2800,-112.143155,33.69814
Bellaire Golf Club,17233 N 45th Ave,Glendale,AZ,17233,Public,18 Holes,(602) 978-0330,-112.157723,33.642073
Desert Mirage Golf Course,8710 W Maryland Ave,Glendale,AZ,85305-2467,Public,9 Holes,(623) 772-0110,-112.246148,33.528146
Glen Lakes Golf Course,5450 W Northern Ave,Glendale,AZ,85301-1406,Public,9 Holes,(623) 939-7541,-112.176343,33.553251
The 500 Club at Adobe Dam,4707 W Pinnacle Peak Rd,Glendale,AZ,85310-3825,Public,27 Holes,(623) 492-9500,-112.163631,33.697926
The Legend at Arrowhead,21027 N 67th Ave,Glendale,AZ,21027,Public,18 Holes,(623) 561-1902,-112.201974,33.677435
Gold Canyon Golf Resort,6100 S Kings Ranch Rd,Gold Canyon,AZ,85218-4679,Public,36 Holes,(800) 624-6445,-111.44567,33.362487
Gold Canyon RV Ranch,7151 E US Highway 60,Gold Canyon,AZ,85218-9769,Public,18 Holes,(877) 465-3226,-111.470801,33.358755
Mountain Brook Golf Club,5783 S Mountainbrook Dr,Gold Canyon,AZ,85218-7189,Public,18 Holes,(480) 671-1000,-111.3638,33.2782
Estrella Mountain Golf Course,15205 W Vineyard,Goodyear,AZ,15205,Municipal,18 Holes,(623) 932-3714,-112.385284,33.387273
Eagles Nest at Pebble Creek,3645 Clubhouse Dr,Goodyear,AZ,85338-8504,Public,18 Holes,(623) 935-6750,-112.390079,33.487918
Estrella Mountain Ranch Golf Club,11800 S Golf Club Dr,Goodyear,AZ,11800,Public,18 Holes,(623) 386-2600,-112.432187,33.338865
Palm Valley Golf Club,2211 N Litchfield Rd,Goodyear,AZ,85338-2122,Public,36 Holes,(800) 475-2978,-112.357904,33.470642
Tuscany Falls At Pebble Creek,16262 Clubhouse Dr,Goodyear,AZ,16262,Public,45 Holes,(623) 536-2491,-112.408329,33.479156
Country Club of Green Valley,77 E Paseo de Golf,Green Valley,AZ,85614-3300,Private,18 Holes,(520) 625-8831,-110.986015,31.885607
Desert Hills Golf Club of Green Valley,2500 S Circulo de Las Lomas,Green Valley,AZ,85614-1252,Private,18 Holes,(520) 625-5090,-111.009599,31.833983
Canoa Hills Golf Course,1401 W Camino Urbano,Green Valley,AZ,85614-4600,Public,18 Holes,(520) 648-1880,-111.014518,31.822533
Canoa Ranch Golf Club,5800 S Camino del Sol,Green Valley,AZ,85614-5097,Public,18 Holes,(520) 393-1966,-111.033713,31.787733
Haven Golf Club,110 N Abrego Dr,Green Valley,AZ,85614-2928,Public,18 Holes,(520) 625-4281,-110.98827,31.871561
Quail Creek Country Club,1490 N Quail View Loop # BLDG2,Green Valley,AZ,85614-6080,Public,27 Holes,(520) 393-5802,-110.942308,31.8915
San Ignacio Golf Club,4201 S Camino del Sol,Green Valley,AZ,85614-5086,Public,18 Holes,(520) 648-3468,-111.006419,31.855435
Torres Blancas Golf Club,3233 S Abrego Dr,Green Valley,AZ,85614-5701,Public,18 Holes,(520) 625-5200,-111.000059,31.823612
Hayden Municipal Golf Course,125 Golf Course Road,Hayden,AZ,85235,Municipal,9 Holes,(888) 386-6449,-110.782479,32.991329
Hidden Cove Golf Course,1500 Golf Course Road,Holbrook,AZ,86025,Municipal,9 Holes,(928) 524-3097,-110.195171,34.918173
Kearny Golf Course,301 Airport Road,Kearny,AZ,85237,Public,9 Holes,(520) 363-7441,-110.91267,33.051878
Cerbat Cliffs Golf Course,1001 Gates Ave,Kingman,AZ,86401-3954,Municipal,18 Holes,(928) 753-6593,-114.041181,35.206052
Valle Vista Golf Club,9686 N Concho Dr,Kingman,AZ,86401-8152,Public,18 Holes,(928) 757-8744,-113.860053,35.405485
The Refuge Golf Club,3275 N Latrobe Dr,Lake Havasu City,AZ,86404-5947,Semi Private,18 Holes,(928) 764-1404,-114.373975,34.536457
Bridgewater Links,1477 Queens Bay,Lake Havasu City,AZ,86403-0965,Public,9 Holes,(800) 624-7939,-114.344481,34.470535
Havasu Island Golf Course,1040 McCulloch Blvd N,Lake Havasu City,AZ,86403-0955,Public,18 Holes,(928) 855-5585,-114.352492,34.469829
London Bridge Golf Course,2400 Clubhouse Dr,Lake Havasu City,AZ,86406-7656,Public,36 Holes,(928) 855-9029,-114.310883,34.466919
The Refuge Golf Club,3275 N Latrobe Dr,Lake Havasu City,AZ,86404-5947,Public,18 Holes,(928) 764-1404,-114.373975,34.536457
Aguila Golf Course,8440 S 35th Ave,Laveen,AZ,85339-1879,Municipal,27 Holes,(602) 534-6116,-112.142179,33.369142
Bougainvillea Golf Club,5740 W Baseline Rd,Laveen,AZ,85339-2822,Public,18 Holes,(602) 237-4567,-112.182173,33.3776
Falcon Golf Club,15152 W Camelback Rd,Litchfield Park,AZ,15152,Public,18 Holes,(623) 935-7800,-112.385479,33.508371
Wigwam Golf & Country Club,451 N Litchfield Rd,Litchfield Park,AZ,85340,Public,54 Holes,(800) 909-4224,-112.362259,33.498435
Palms Golf Course/Oasis Resort,530 E Palms Blvd,Littlefield,AZ,86432,Public,18 Holes,(800) 621-0187,-114.035666,36.811697
The Gallery Golf Club,14000 N Dove Mountain Blvd,Marana,AZ,14000,Semi Private,36 Holes,(888) 802-6300,-111.081043,32.461504
Heritage Highlands Golf & Country Club,4949 W Heritage Club Blvd,Marana,AZ,85653-4017,Public,18 Holes,(520) 579-7000,-111.070332,32.450065
The Ritz Carlton Golf Club,6501 W Boulder Bridge Pass,Marana,AZ,85658-4791,Public,36 Holes,(888) 603-7600,-111.103847,32.471516
Southern Dunes Golf Club,48456 W Highway 238,Maricopa,AZ,48456,Public,18 Holes,(520) 568-2000,-112.091062,33.076272
The Duke At Rancho El Dorado Golf Course,42660 W Rancho El Dorado Pkwy,Maricopa,AZ,42660,Public,18 Holes,(480) 844-1100,-112.024239,33.075458
Dobson Ranch Municipal Golf Course,2155 S Dobson Rd,Mesa,AZ,85202-6410,Municipal,18 Holes,(480) 644-2291,-111.878636,33.375748
Riverview Golf Course,2202 W 8th St,Mesa,AZ,85201-3601,Municipal,9 Holes,(480) 644-3515,-111.878467,33.429527
Alta Mesa Country Club,1460 N Alta Mesa Dr,Mesa,AZ,85205-4417,Private,18 Holes,(480) 827-9411,-111.707123,33.44166
Fountain of the Sun Country Club,500 S 80th St W,Mesa,AZ,85208-6400,Private,18 Holes,(480) 986-3128,-111.659152,33.405352
Leisure World Country Club,1548 Leisure World,Mesa,AZ,85206-2312,Private,36 Holes,(480) 634-4370,-111.702912,33.397166
Mesa Country Club,660 W Fairway Dr,Mesa,AZ,85201-2507,Private,18 Holes,(480) 964-1797,-111.842644,33.44015
Red Mountain Ranch Country Club,6425 E Teton Cir,Mesa,AZ,85215-0830,Semi Private,18 Holes,(480) 985-0285,-111.690894,33.488118
Apache Wells Country Club,5601 E Hermosa Vista Dr,Mesa,AZ,85215-2000,Public,18 Holes,(480) 830-4725,-111.710286,33.458563
Arizona Golf Resort & Conference Center,425 S Power Rd,Mesa,AZ,85206-5202,Public,18 Holes,(480) 832-1661,-111.684319,33.408209
Augusta Ranch Golf Club,2401 S Lansing,Mesa,AZ,85209-1155,Public,18 Holes,(480) 354-1234,-111.632557,33.372973
Desert Sands Golf Course,7400 E Baseline Rd,Mesa,AZ,85209-4902,Public,18 Holes,(480) 832-0210,-111.671752,33.379556
Dreamland Villa Golf Club,5641 E Albany St,Mesa,AZ,85205-8849,Public,9 Holes,(480) 985-6591,-111.709703,33.417959
Fiesta Lakes Golf Club,1415 S Westwood,Mesa,AZ,85210-4915,Public,9 Holes,(480) 969-0377,-111.852884,33.388993
Las Sendas Golf Club,7555 E Eagle Crest Dr,Mesa,AZ,85207-1053,Public,18 Holes,(480) 396-4000,-111.671554,33.491205
Longbow Golf Club,5601 E Longbow Pjwy,Mesa,AZ,85215,Public,18 Holes,(480) 807-5400,-111.709032,33.47341
Mesa Golf Center,3252 E McKellips Rd,Mesa,AZ,85213-3202,Public,18 Holes,(480) 924-1350,-111.760665,33.451988
Painted Mountain Golf Club,6210 E McKellips Rd,Mesa,AZ,85215-2823,Public,18 Holes,(480) 832-0156,-111.696505,33.452013
Royal Palms Golf Course,1415 E McKellips Rd,Mesa,AZ,85203-2723,Public,9 Holes,(480) 964-1709,-111.799888,33.451424
Sunland Springs Golf Course,11061 E Medina Ave,Mesa,AZ,11061,Public,27 Holes,(480) 984-4209,-111.595358,33.371225
Sunland Village East Golf Course,2250 S Buttercup,Mesa,AZ,85209-5040,Public,18 Holes,(480) 986-4079,-111.666727,33.374975
Sunland Village Golf Club Inc,725 S Rochester,Mesa,AZ,85206-2138,Public,18 Holes,(480) 832-3691,-111.726597,33.401833
Superstition Springs Golf Club,6542 E Baseline Rd,Mesa,AZ,85206-4300,Public,18 Holes,(480) 985-5622,-111.689838,33.379498
Toka Sticks Golf Course,6910 E Williams Field Rd,Mesa,AZ,85212-6019,Public,18 Holes,(480) 988-9405,-111.685779,33.307309
Viewpoint Golf Resort,650 N Hawes Rd,Mesa,AZ,85207-5833,Public,27 Holes,(480) 373-8715,-111.65017,33.426361
Cobre Valley Country Club,4877 W Cypress Way,Miami,AZ,85539-8779,Public,9 Holes,(928) 473-2542,-110.827761,33.418892
El Rio Golf and Country Club,One Paseo L Rio,Mohave Valley,AZ,86440,Public,18 Holes,(866) 389-2445,-114.592966,34.960678
Willow Springs Golf Course,8011 Hwy 95,Mohave Valley,AZ,86440,Public,9 Holes,(928) 768-4414,-114.598501,34.923577
Pinewood Country Club,395 Pinewood Boulevard East,Munds Park,AZ,86017,Private,18 Holes,(928) 286-1110,-111.64212,34.940639
Turquoise Valley Golf/RV Park,1794 West Newell Street,Naco,AZ,85620,Public,18 Holes,(520) 432-3091,-109.948449,31.34009
Kino Springs Country Club,187 Kino Springs Dr,Nogales,AZ,85621-9502,Public,18 Holes,(800) 732-5751,-110.83125,31.360468
Palo Duro Creek Golf Course,2690 North Country Club Drive,Nogales,AZ,85621,Public,18 Holes,(877) 752-9732,-110.963405,31.380376
SaddleBrooke Ranch Golf Course,62493 E Robson Cir,Oracle,AZ,62493,Public,18 Holes,(520) 818-6403,-110.917954,32.590874
Pine Meadows Country Club,2209 Country Club Drive,Overgaard,AZ,85933,Public,9 Holes,(800) 646-5360,-110.546777,34.397812
Lake Powell National Golf Course,400 Clubhouse Drive,Page,AZ,86040,Municipal,18 Holes,(928) 645-2023,-111.468952,36.921948
Paradise Valley Country Club,7101 N Tatum Blvd,Paradise Valley,AZ,85253-3309,Private,18 Holes,(602) 952-7232,-111.975526,33.539999
Emerald Canyon Golf Course,7351 Riverside Dr,Parker,AZ,85344-8500,Municipal,18 Holes,(928) 667-3366,-114.189831,34.224828
The Rim Golf Club,300 S Club House,Payson,AZ,85541-5861,Private,18 Holes,(888) 746-2582,-111.280225,34.246397
Golf Club At Chaparral Pines,504 N Club Dr,Payson,AZ,85541-2908,Semi Private,18 Holes,(928) 472-1430,-111.280035,34.257245
Payson Golf Course,1504 W Country Club Dr,Payson,AZ,85541-4642,Public,18 Holes,(928) 474-2273,-111.355402,34.231186
Shadow Mt. Country Club,1105 E Irene St,Pearce,AZ,85625-4040,Public,18 Holes,(520) 826-3412,-109.840792,31.939432
Blackstone Country Club,12101 W Lone Mountain Pkwy,Peoria,AZ,12101,Private,18 Holes,(800) 617-5301,-112.319474,33.756089
Quintero Golf & Country Club,16752 W State Route 74,Peoria,AZ,16752,Semi Private,18 Holes,(888) 417-8468,-112.415136,33.826513
Country Meadows Golf Club,8411 N 107th Ave,Peoria,AZ,85345-7472,Public,18 Holes,(623) 972-1364,-112.289644,33.557227
Trilogy Golf Club At Vistancia,12575 W Golf Club Dr,Peoria,AZ,12575,Public,18 Holes,(623) 328-5100,-112.3303,33.743374
Westbrook Village Golf Club,19260 N Westbrook Pkwy,Peoria,AZ,19260,Public,18 Holes,(623) 566-3439,-112.265775,33.658861
Westbrook Village/Vista Course,18823 N Country Club Pkwy,Peoria,AZ,18823,Public,18 Holes,(623) 566-1633,-112.245949,33.656218
Cave Creek Municipal Golf Course,15202 N 19th Ave,Phoenix,AZ,15202,Municipal,18 Holes,(602) 866-8076,-112.099847,33.624035
Encanto Golf Course,2775 N 15th Ave,Phoenix,AZ,85007-1000,Municipal,18 Holes,(602) 253-3963,-112.091281,33.477823
Encanto Nine Golf Course,2300 N 17th Ave,Phoenix,AZ,85007-1220,Municipal,9 Holes,(602) 262-6870,-112.095669,33.473253
Maryvale Golf Course,5902 W Indian School Rd,Phoenix,AZ,85033-2801,Municipal,18 Holes,(866) 865-4653,-112.186557,33.495148
Palo Verde Golf Course,6215 N 15th Ave,Phoenix,AZ,85015-2002,Municipal,9 Holes,(602) 249-9930,-112.090999,33.528059
Paradise Valley Park Golf Course,3505 E Union Hills Dr,Phoenix,AZ,85050-3211,Municipal,18 Holes,(602) 992-7190,-112.007044,33.655047
Arizona Country Club,5668 E Orange Blossom Ln,Phoenix,AZ,85018-8115,Private,18 Holes,(480) 889-1529,-111.959396,33.480684
Moon Valley Country Club,151 W Moon Valley Dr,Phoenix,AZ,85023-6264,Private,36 Holes,(602) 942-1278,-112.077641,33.617876
Phoenix Country Club,2901 N 7th St,Phoenix,AZ,85014-5402,Private,18 Holes,(602) 263-5208,-112.064988,33.480321
Paradise Peak West,3901 E Pinnacle Peak Rd,Phoenix,AZ,85050-8103,Semi Private,9 Holes,(480) 515-2043,-111.998441,33.698598
Ahwatukee Country Club,12432 S 48th St,Phoenix,AZ,12432,Public,18 Holes,(480) 893-1161,-111.981482,33.333491
Arizona Biltmore Golf & Country Club,2400 E Missouri Ave,Phoenix,AZ,85016-3106,Public,36 Holes,(602) 955-9655,-112.023609,33.5231
Arizona Grand Resort,8000 S Arizona Grand Pkwy,Phoenix,AZ,85044-5409,Public,18 Holes,(602) 431-6480,-111.973767,33.372839
Club West Golf Club,16400 S 14th Ave,Phoenix,AZ,16400,Public,18 Holes,(480) 460-4400,-112.088982,33.298417
Wildfire Golf Club,5350 E Marriott Dr,Phoenix,AZ,85054-6147,Public,36 Holes,(480) 473-0205,-111.968034,33.681452
Papago Municipal Golf Course,5595 E Moreland St,Phoenix,AZ,85008-3448,Public,18 Holes,(602) 275-8428,-111.964379,33.460293
Pointe Golf Course on Lookout Mountain,11111 N 7th St,Phoenix,AZ,11111,Public,18 Holes,(602) 866-6356,-112.064994,33.594638
Raven Golf Course At South Mountain,3636 E Baseline Rd,Phoenix,AZ,85042-7214,Public,18 Holes,(602) 243-3636,-112.002159,33.378216
Stonecreek Golf Club,4435 E Paradise Village Pkwy S,Phoenix,AZ,85032-7744,Public,18 Holes,(602) 953-9111,-111.9844,33.596372
The First Tee of Phoenix,9510 S 7th St,Phoenix,AZ,85042-7756,Public,9 Holes,(602) 305-7655,-112.065261,33.357829
The Foothills Golf Club,2201 E Clubhouse Dr,Phoenix,AZ,85048-8600,Public,18 Holes,(480) 460-4653,-112.037399,33.298891
The Lakes at Ahwatukee,13431 S 44th St,Phoenix,AZ,13431,Public,18 Holes,(480) 893-3004,-111.988988,33.327959
The Legacy Golf Resort,6808 S 32nd St,Phoenix,AZ,85042-6004,Public,18 Holes,(888) 828-3673,-112.012704,33.384653
Villa De Paz Golf Course,4220 N 103rd Ave,Phoenix,AZ,85037-5500,Public,18 Holes,(623) 877-1171,-112.281164,33.49581
Vistal Golf Club,701 E Thunderbird Trl,Phoenix,AZ,85042-8372,Public,18 Holes,(602) 305-7755,-112.064535,33.357761
Pinetop Country Club,6734 Country Club Drive,Pinetop,AZ,85935,Private,18 Holes,(928) 369-2461,-109.880975,34.105128
White Mountain Country Club,3644 Country Club Cir,Pinetop,AZ,85935-8445,Private,18 Holes,(928) 367-4357,-109.915668,34.105276
Pinetop Lakes Golf & Country Club,4643 Buck Springs Rd,Pinetop,AZ,85935-8132,Public,18 Holes,(928) 369-4531,-109.905631,34.115947
StoneRidge Golf Course,1601 N Bluff Top Dr,Prescott Valley,AZ,86314-1901,Public,18 Holes,(928) 772-6500,-112.342327,34.567139
Antelope Hills Golf Courses,1 Perkins Dr,Prescott,AZ,86301-8458,Municipal,36 Holes,(800) 972-6818,-112.42924,34.640115
Hassayampa Golf Club,2060 Golf Club Ln,Prescott,AZ,86303-4957,Private,18 Holes,(928) 445-0009,-112.509465,34.532258
Prescott Lakes Golf Club,315 E Smoke Tree Ln,Prescott,AZ,86301,Semi Private,18 Holes,(877) 643-3501,-112.450583,34.583986
Talking Rock Golf Club,15075 N Talking Rock Ranch Rd,Prescott,AZ,15075,Semi Private,18 Holes,(928) 922-4440,-112.572781,34.762452
Encanterra Country Club,36460 N Encanterra Dr,Queen Creek,AZ,36460,Semi Private,18 Holes,(800) 685-6494,-111.553893,33.219501
Apache Sun Golf Club,919 E Pima Rd,Queen Creek,AZ,85242-8752,Public,9 Holes,(480) 987-9065,-111.556069,33.263404
Las Colinas Golf Club,21515 E Village Loop Rd,Queen Creek,AZ,21515,Public,18 Holes,(480) 987-3633,-111.618313,33.234209
The Golf Club At Johnson Ranch,30761 North Golf Club Dr,Queen Creek,AZ,30761,Public,18 Holes,(480) 987-9800,-111.564318,33.160566
The Links Golf Club At Queen Creek,445 E Ocotillo Rd,Queen Creek,AZ,85242-8948,Public,18 Holes,(480) 987-1910,-111.560128,33.248873
Queen Valley Golf Course,600 N Fairway Dr,Queen Valley,AZ,85218-9004,Public,18 Holes,(877) 588-2121,-111.289511,33.299209
Beaver Creek Golf Resort,4105 E Lake Shore Dr,Rimrock,AZ,86335-5428,Public,18 Holes,(928) 567-4487,-111.778742,34.632303
Rio Rico Resort & Country Club,1069 Camino Caralampi,Rio Rico,AZ,85648-1610,Public,18 Holes,(520) 281-8567,-110.998499,31.4583
Rio Verde Country Club,18731 E Four Peaks Blvd,Rio Verde,AZ,18731,Private,54 Holes,(480) 471-9420,-111.675499,33.720219
Tonto Verde Golf Club,18402 E El Circulo Dr,Rio Verde,AZ,18402,Public,36 Holes,(480) 471-2710,-111.676579,33.733535
Vista Verde Golf Course,E Rio Verde Dr & N 174th St,Rio Verde,AZ,85263,Public,18 Holes,(800) 898-5768,-111.672539,33.719532
Mt Graham Municipal Golf Course,Golf Course Rd,Safford,AZ,85548,Municipal,18 Holes,(928) 348-3140,-109.767726,32.807627
Apache Stronghold Golf Club,5 Miles East of Globe on Highway 70,San Carlos,AZ,85550,Public,18 Holes,(800) 272-2438,-110.668115,33.356594
San Manuel Country Club,26950 North Reddington Road,San Manuel,AZ,26950,Public,9 Holes,(520) 385-2224,-110.628119,32.61417
Desert Highlands Golf Club,10040 E Happy Valley Rd,Scottsdale,AZ,10040,Private,18 Holes,(480) 585-7444,-111.867839,33.712793
Mirabel Golf Club,37100 N Mirabel Club Dr,Scottsdale,AZ,37100,Private,18 Holes,(480) 437-1500,-111.853768,33.820668
Pinnacle Peak Country Club,8701 E Pinnacle Peak Rd,Scottsdale,AZ,85255-3589,Private,18 Holes,(480) 585-0385,-111.892405,33.698468
The Country Club At DC Ranch,9290 E Thompson Peak Pkwy,Scottsdale,AZ,85255-4507,Private,18 Holes,(480) 342-7210,-111.880646,33.674536
The Desert Mountain Club,10333 E Rockaway Hills Dr,Scottsdale,AZ,10333,Private,108 Holes,(800) 362-5827,-111.858914,33.857841
The Estancia Club,27998 N 99th Pl,Scottsdale,AZ,27998,Private,18 Holes,(480) 473-4400,-111.866764,33.739934
Troon Golf & Country Club,25000 N Windy Walk Dr,Scottsdale,AZ,25000,Private,18 Holes,(480) 585-4310,-111.851316,33.710716
Whisper Rock Golf Club,32002 N Old Bridge Rd,Scottsdale,AZ,32002,Private,36 Holes,(480) 575-8700,-111.908437,33.775315
Ancala Country Club,11700 E Via Linda,Scottsdale,AZ,11700,Semi Private,18 Holes,(480) 391-1000,-111.829587,33.589832
Gainey Ranch Golf Club,7600 E Gainey Club Dr,Scottsdale,AZ,85258-1625,Semi Private,45 Holes,(480) 951-0022,-111.918447,33.568641
Terravita,34034 N 69th Way,Scottsdale,AZ,34034,Semi Private,18 Holes,(480) 488-7962,-111.932225,33.79447
The Golf Club Scottsdale,29001 N 122nd St,Scottsdale,AZ,29001,Semi Private,18 Holes,(480) 443-8868,-111.813546,33.746402
The Silverleaf Club,18701 N Silverleaf Dr,Scottsdale,AZ,18701,Semi Private,18 Holes,(480) 515-3210,-111.860571,33.657691
Camelback Golf Club,7847 N Mockingbird Ln,Scottsdale,AZ,85253-3130,Public,36 Holes,(800) 242-2635,-111.934647,33.553132
Continental Golf Course,7920 E Osborn Rd,Scottsdale,AZ,85251-7454,Public,18 Holes,(480) 941-1047,-111.910229,33.487726
Coronado Golf Course,2829 N Miller Rd,Scottsdale,AZ,85257-1610,Public,9 Holes,(480) 947-8364,-111.917391,33.478679
Cypress Golf Course,10801 E McDowell Rd,Scottsdale,AZ,10801,Public,18 Holes,(480) 946-5155,-111.848995,33.465864
Grayhawk Golf Club,8620 E Thompson Peak Pkwy,Scottsdale,AZ,85255-9141,Public,36 Holes,(480) 502-1800,-111.896602,33.677134
Kierland Golf Club,15636 N Clubgate Dr,Scottsdale,AZ,15636,Public,54 Holes,(480) 922-9283,-111.936522,33.627813
Legend Trail Golf Club,9462 E Legendary Ln,Scottsdale,AZ,85262-1139,Public,18 Holes,(480) 488-7434,-111.875645,33.800068
McCormick Ranch Golf Club,7505 E McCormick Pkwy,Scottsdale,AZ,85258-3429,Public,36 Holes,(480) 948-0260,-111.919887,33.550684
Mountain Shadows Executive Golf Course,5517 E Lincoln Dr,Scottsdale,AZ,85253-4119,Public,18 Holes,(080) 782-2123,-111.962542,33.530839
Pavilion Lakes Golf Club,8870 E Indian Bend Rd,Scottsdale,AZ,85250-8525,Public,18 Holes,(480) 948-3370,-111.889837,33.538545
The Phoenician Resort Golf Course,6000 E Camelback Rd,Scottsdale,AZ,85251-1949,Public,54 Holes,(480) 423-2450,-111.951771,33.502089
Sanctuary Golf Course At WestWorld,10690 E Sheena Dr,Scottsdale,AZ,10690,Public,18 Holes,(480) 502-8200,-111.851544,33.616423
Scottsdale Shadows,7800 E Camelback Rd,Scottsdale,AZ,85251-2226,Public,9 Holes,(480) 994-0433,-111.913111,33.502276
Scottsdale Silverado Golf Club,7605 E Indian Bend Rd,Scottsdale,AZ,85250-4634,Public,18 Holes,(480) 778-0100,-111.915871,33.535941
Starfire At Scottsdale Country Club,11500 N Hayden Rd,Scottsdale,AZ,11500,Public,54 Holes,(480) 948-6000,-111.908839,33.589508
Talking Stick Golf Club,9998 E Indian Bend Rd,Scottsdale,AZ,85256-1201,Public,36 Holes,(480) 860-2221,-111.865638,33.538741
The Orange Tree Golf Resort,10601 N 56th St,Scottsdale,AZ,10601,Public,18 Holes,(800) 228-0386,-111.960454,33.587445
TPC of Scottsdale,17020 N Hayden Rd,Scottsdale,AZ,17020,Public,36 Holes,(888) 400-4001,-111.907764,33.641034
Troon North Golf Club,10320 E Dynamite Blvd,Scottsdale,AZ,10320,Public,36 Holes,(888) 876-6687,-111.85733,33.745287
Seven Canyons,755 Golf Club Way,Sedona,AZ,86336-3023,Semi Private,18 Holes,(866) 694-8844,-111.821436,34.917123
Canyon Mesa Country Club,500 Jacks Canyon Rd,Sedona,AZ,86351-7855,Public,9 Holes,(928) 284-0036,-111.753387,34.779195
Oakcreek Country Club,690 Bell Rock Blvd,Sedona,AZ,86351-8621,Public,18 Holes,(888) 703-9489,-111.774381,34.781855
Poco Diablo Resort,1752 Highway 179,Sedona,AZ,86336-6547,Public,9 Holes,(928) 282-7333,-111.773412,34.843919
Sedona Golf Resort,35 Ridge Trail Dr,Sedona,AZ,86351-7391,Public,18 Holes,(877) 733-9887,-111.765794,34.773648
Torreon Golf Club,651 Torreon Loop,Show Low,AZ,85901-9738,Semi Private,36 Holes,(877) 771-6771,-110.08329,34.243413
Bison Golf and Country Club,1 North Bison Preserve Dr,Show Low,AZ,85901-3333,Public,18 Holes,(928) 537-4564,-110.083624,34.260804
Juniper Ridge R.V. Resort,1911 Juniper Ridge Resort,Show Low,AZ,85901-9514,Public,9 Holes,(928) 537-4805,-110.004158,34.354726
Silver Creek Golf Club,2051 Silver Lake Blvd,Show Low,AZ,85901-8154,Public,18 Holes,(800) 909-5981,-109.983754,34.362406
Pueblo Del Sol Country Club,2770 Saint Andrews Dr,Sierra Vista,AZ,85650-5220,Private,18 Holes,(520) 378-6444,-110.265876,31.518311
Snowflake Municipal Golf Course,90 N Country Club Dr,Snowflake,AZ,85937-6089,Municipal,27 Holes,(800) 600-9033,-110.120067,34.508977
Briarwood Country Club,20800 N 135th Ave,Sun City West,AZ,20800,Private,18 Holes,(623) 584-5301,-112.353663,33.67261
Echo Mesa Golf Course,20349 N Echo Mesa Dr,Sun City West,AZ,20349,Private,18 Holes,(623) 544-6014,-112.358977,33.669127
Pebblebrook Golf Course,18836 N 128th Ave,Sun City West,AZ,18836,Private,18 Holes,(623) 544-6010,-112.3319,33.656426
Corte Bella Golf Club,22129 N Mission Dr,Sun City West,AZ,22129,Semi Private,18 Holes,(800) 704-7626,-112.342399,33.684475
Deer Valley Golf Course,13975 W Deer Valley Dr,Sun City West,AZ,13975,Semi Private,18 Holes,(623) 544-6016,-112.360516,33.687427
Desert Trails,22525 N Executive Way,Sun City West,AZ,22525,Semi Private,18 Holes,(623) 544-6017,-112.388604,33.688476
Grandview Golf Course,14260 W Meeker Blvd,Sun City West,AZ,14260,Semi Private,18 Holes,(623) 544-6013,-112.366514,33.658973
Stardust Golf Course,12702 W Stardust Blvd,Sun City West,AZ,12702,Semi Private,18 Holes,(623) 544-6012,-112.333236,33.670693
Trail Ridge Golf Course,21021 N 151st Ave,Sun City West,AZ,21021,Semi Private,18 Holes,(623) 544-6015,-112.380346,33.675335
Hillcrest Golf Course,20002 N Star Ridge Dr,Sun City West,AZ,20002,Public,18 Holes,(623) 584-1500,-112.34331,33.665013
PalmBrook Country Club,9350 W Greenway Rd,Sun City,AZ,85351-1700,Private,18 Holes,(623) 977-8383,-112.261233,33.623249
Union Hills Country Club,9860 W Lindgren Ave,Sun City,AZ,85373-2100,Private,18 Holes,(623) 974-5888,-112.274177,33.647209
Quail Run Golf Course,9774 W Alabama Ave,Sun City,AZ,85351-3673,Semi Private,9 Holes,(623) 876-3035,-112.267913,33.594054
Sun City Lakes West & East,10433 W Talisman Rd,Sun City,AZ,10433,Semi Private,36 Holes,(623) 876-3020,-112.283241,33.618593
Sun City Riverview Golf Course,16401 N del Webb Blvd,Sun City,AZ,16401,Semi Private,18 Holes,(623) 876-3025,-112.287925,33.63205
Sun City South Golf Course,11000 N 103rd Ave,Sun City,AZ,11000,Semi Private,18 Holes,(623) 876-3015,-112.281454,33.584591
Sun City Willow Creek/Willow Brook,10600 W Boswell Blvd,Sun City,AZ,10600,Semi Private,36 Holes,(623) 876-3033,-112.28594,33.647516
Sun City Country Club,9433 N 107th Ave,Sun City,AZ,85351-4666,Public,18 Holes,(623) 933-1353,-112.289765,33.572367
Sun City North Golf Course,12650 N 107th Ave,Sun City,AZ,12650,Public,18 Holes,(623) 876-3010,-112.290169,33.599425
Cottonwood Country Club,25630 S Brentwood Dr,Sun Lakes,AZ,25630,Private,18 Holes,(480) 895-9449,-111.866925,33.213597
Palo Verde Country Club,10801 E San Tan Blvd,Sun Lakes,AZ,10801,Private,18 Holes,(480) 895-0300,-111.849799,33.210697
Oakwood Golf Club,24215 S Oakwood Blvd,Sun Lakes,AZ,24215,Public,18 Holes,(480) 895-1159,-111.871482,33.227804
Arizona Traditions Golf Club,17225 N Citrus Rd,Surprise,AZ,17225,Public,18 Holes,(623) 584-4000,-112.444211,33.64043
Cimarron Golf Club,17100 W Clearview Blvd,Surprise,AZ,17100,Public,18 Holes,(623) 975-5654,-112.42771,33.663949
Coyote Lakes Golf Club,18800 N Coyote Lakes Pkwy,Surprise,AZ,18800,Public,18 Holes,(623) 566-2323,-112.308194,33.655536
Desert Springs Golf Course,19900 N Remington Dr,Surprise,AZ,19900,Public,18 Holes,(623) 546-7400,-112.405855,33.661542
Granite Falls Golf Club,15949 W Clearview Blvd,Surprise,AZ,15949,Public,36 Holes,(623) 546-7575,-112.403469,33.654205
Great Eagle Golf Club,17200 W Bell Rd,Surprise,AZ,17200,Public,18 Holes,(623) 584-6000,-112.428676,33.63904
Sun Village,14300 W Bell Rd,Surprise,AZ,14300,Public,18 Holes,(623) 584-5774,-112.368279,33.638804
Ken McDonald Golf Course,800 E Divot Dr,Tempe,AZ,85283-4607,Municipal,18 Holes,(480) 350-5250,-111.930517,33.355743
Rolling Hills Golf Course,1415 N Mill Ave,Tempe,AZ,85281-1205,Municipal,18 Holes,(480) 350-5275,-111.948711,33.44489
AllGolf At Rio Salado,1490 E Weber Dr,Tempe,AZ,85281-1800,Public,9 Holes,(480) 990-1233,-111.912492,33.444171
ASU Karsten Golf Course,1125 E Rio Salado Pkwy,Tempe,AZ,85281-2110,Public,18 Holes,(480) 921-8070,-111.922164,33.429099
Shalimar Golf Club,2032 E Golf Ave,Tempe,AZ,85282-4030,Public,9 Holes,(480) 838-0488,-111.898309,33.394941
Tubac Golf Resort,One Otero Road,Tubac,AZ,85646,Public,27 Holes,(800) 848-7893,-111.045137,31.625037
Fred Enke Golf Course,8251 E Irvington Rd,Tucson,AZ,85730-4657,Municipal,18 Holes,(520) 791-2539,-110.813887,32.163036
Randolph Park Golf Courses,600 S Alvernon Way,Tucson,AZ,85711-4765,Municipal,36 Holes,(520) 791-4161,-110.909775,32.213158
Silverbell Golf Course,3600 N Silverbell Rd,Tucson,AZ,85745-9701,Municipal,18 Holes,(520) 791-5235,-111.026678,32.272211
Trini Alvarez El Rio Golf Course,1400 W Speedway Blvd,Tucson,AZ,85745-2322,Municipal,18 Holes,(520) 791-4229,-110.996779,32.235899
Oro Valley Country Club,300 W Greenock Dr,Tucson,AZ,85737-8368,Private,18 Holes,(520) 297-1121,-110.971764,32.389211
Rolling Hills Golf Course,8900 E 29th St,Tucson,AZ,85710-7965,Private,18 Holes,(520) 298-2401,-110.803279,32.198538
Sewailo Golf Club,5655 West Valencia Rd,Tucson,AZ,NA,Public,18,(520) 838-6623,-111.084889,32.128102
Skyline Country Club,5200 E Saint Andrews Dr,Tucson,AZ,85718-1717,Private,18 Holes,(520) 299-1111,-110.881844,32.330869
Sun City Vistoso Golf Course,1555 E Rancho Vistoso Blvd,Tucson,AZ,85755-9120,Private,18 Holes,(520) 825-3110,-110.949554,32.46264
Tucson Country Club,2950 N Camino Principal,Tucson,AZ,85715-3113,Private,18 Holes,(520) 298-2381,-110.849959,32.259669
Tucson Estates Golf Course,2500 S Western Way Cir,Tucson,AZ,85713-4325,Private,18 Holes,(520) 883-5566,-111.087894,32.192912
General William Blanchard Golf Course,Davis Mouthtan AFB,Tucson,AZ,85707,Semi Private,18 Holes,(520) 228-3734,-110.815124,32.167956
La Paloma Country Club,3660 E Sunrise Dr,Tucson,AZ,85718-3201,Semi Private,54 Holes,(520) 299-1500,-110.915504,32.318179
Saddlebrooke Golf Course,64500 E Saddlebrooke Blvd,Tucson,AZ,64500,Semi Private,54 Holes,(520) 825-2505,-110.880384,32.534904
Stone Canyon Club,14200 N Hohokam Village Pl,Tucson,AZ,14200,Semi Private,18 Holes,(520) 219-1500,-110.987669,32.46357
Arizona National Golf Club,9777 E Sabino Greens Dr,Tucson,AZ,85749-9152,Public,18 Holes,(520) 749-3636,-110.783509,32.301368
Crooked Tree Golf Course,9101 N Thornydale Rd,Tucson,AZ,85742-9082,Public,18 Holes,(520) 744-3322,-111.047033,32.370002
Dorado Country Club,1200 N Dorado Club Dr,Tucson,AZ,85715-4700,Public,18 Holes,(520) 885-6751,-110.849821,32.236374
El Conquistador Country Club,10555 N La Canada Dr,Tucson,AZ,10555,Public,36 Holes,(520) 544-5000,-110.995984,32.399039
Forty Niner Golf & Country Club,12000 E Tanque Verde Rd,Tucson,AZ,12000,Public,18 Holes,(520) 749-4001,-110.735689,32.250924
MountainView Country Club,38759 S Mountain View Blvd,Tucson,AZ,38759,Public,18 Holes,(520) 818-1100,-110.898107,32.524702
Omni Tucson National Golf Resort & Spa,2727 W Club Dr,Tucson,AZ,85742-9766,Public,36 Holes,(520) 297-2271,-111.026763,32.358625
Pusch Ridge Golf Course,10000 N Oracle Rd,Tucson,AZ,10000,Public,18 Holes,(520) 544-1770,-110.964163,32.386796
Quail Canyon Golf Course,5910 N Oracle Rd,Tucson,AZ,85704-3816,Public,18 Holes,(520) 887-6161,-110.977432,32.313807
Starr Pass Golf Club,3645 W Starr Pass Blvd,Tucson,AZ,85745-9596,Public,27 Holes,(800) 503-2898,-111.042195,32.208982
The Golf Club at Vistoso,955 W Vistoso Highlands Dr,Tucson,AZ,85755-5867,Public,18 Holes,(520) 797-7900,-110.982281,32.45681
The Lodge At Ventana Canyon,6200 N Club House Ln,Tucson,AZ,85750-1339,Public,36 Holes,(520) 828-5701,-110.846799,32.320443
The Pines Golf Club At Marana,8480 N Continental Links Dr,Tucson,AZ,85743-8587,Public,18 Holes,(866) 746-3718,-111.098405,32.360657
The Preserve,66567 E Catalina Hills Dr,Tucson,AZ,66567,Public,18 Holes,(520) 825-9022,-110.85562,32.549696
Voyager RV Resort and Golf Course,8701 S Kolb Rd,Tucson,AZ,85756-9607,Public,9 Holes,(520) 574-5700,-110.841064,32.093655
Del Lago Golf Club,14155 E Via Rancho del Lago,Vail,AZ,14155,Public,18 Holes,(520) 647-1100,-110.694909,32.066158
Falcon Dunes Golf Course,15100 W Northern Ave,Waddell,AZ,15100,Semi Private,18 Holes,(623) 535-9334,-112.384839,33.551534
Butterfield Municipal Golf Course,10231 Dome St,Wellton,AZ,10231,Municipal,18 Holes,(928) 785-4834,-114.13348,32.676277
The Links at Coyote Wash,11902 Williams St,Wellton,AZ,11902,Public,18 Holes,(928) 785-4875,-114.142938,32.649689
Los Caballeros Golf Club,1551 S Vulture Mine Rd,Wickenburg,AZ,85390-2118,Public,18 Holes,(928) 684-2704,-112.781159,33.942072
Wickenburg Country Club,1420 N Country Club Drive,Wickenburg,AZ,85390,Public,18 Holes,(928) 684-2011,-112.759964,33.974512
Twin Lakes Golf & Country Club,1000 S Rex Allen Jr Dr,Willcox,AZ,85643-1317,Municipal,9 Holes,(520) 384-2720,-109.82472,32.237715
Elephant Rocks at Williams,2200 W Country Club Dr,Williams,AZ,86046-9794,Municipal,18 Holes,(928) 635-4935,-112.227436,35.250775
Arroyo Dunes Golf Course,1301 W 32nd St,Yuma,AZ,85364-7815,Municipal,18 Holes,(928) 726-8350,-114.634686,32.669288
Desert Hills Golf Course,1245 W Desert Hills Dr,Yuma,AZ,85365-3906,Municipal,18 Holes,(928) 344-4653,-114.633951,32.659582
Yuma Golf & Country Club,3150 S Fortuna Ave,Yuma,AZ,85365-3415,Private,18 Holes,(928) 726-1104,-114.607541,32.66989
Cocopah RV & Golf Resort,6800 S Strand Ave,Yuma,AZ,85364-9727,Public,18 Holes,(928) 343-1663,-114.691383,32.732027
Fortuna Delrey Golf Course,13650 N Frontage Rd,Yuma,AZ,13650,Public,9 Holes,(928) 342-4766,-114.397039,32.667853
Ironwood Golf Course,2945 W 8th St,Yuma,AZ,85364-8013,Public,9 Holes,(928) 343-1466,-114.656693,32.712633
Las Barrancas Golf Course,14076 E 48th Dr,Yuma,AZ,14076,Public,18 Holes,(928) 342-7130,-114.384226,32.642083
Mesa Del Sol Golf Club,12213 E Calle del Cid,Yuma,AZ,12213,Public,18 Holes,(928) 342-1283,-114.425727,32.676927
Forest Lake Golf Course,2450 E Woodson Rd,Acampo,CA,95220-9646,Public,18 Holes,(209) 369-5451,-121.288714,38.216351
Lindero Country Club,5719 Lake Lindero Dr,Agoura Hills,CA,91301-1413,Public,9 Holes,(818) 889-1158,-118.789203,34.1553
River Creek Golf Course,41709 Rd 600,Ahwahnee,CA,41709,Public,9 Holes,(559) 683-5600,-119.73005,37.349774
Sierra Meadows Country Club,46516 Opah Dr,Ahwahnee,CA,46516,Public,18 Holes,(800) 642-7448,-119.699144,37.36529
Chuck Corica Golf Complex,1 Clubhouse Memorial Rd,Alameda,CA,94502-6502,Municipal,45 Holes,(510) 747-7824,-122.234142,37.739627
Round Hill Country Club,3169 Roundhill Rd,Alamo,CA,94507-1705,Private,18 Holes,(925) 934-8211,-122.008816,37.854715
Alhambra Golf Course,630 S Almansor St,Alhambra,CA,91801-4537,Municipal,18 Holes,(626) 570-5059,-118.116824,34.090064
Aliso Viejo Country Club,33 Santa Barbara Dr,Aliso Viejo,CA,92656-1622,Semi Private,18 Holes,(949) 598-9200,-117.726909,33.600129
Altadena Golf Course,1456 E Mendocino St,Altadena,CA,91001-2600,Municipal,9 Holes,(626) 797-8441,-118.119627,34.185732
Arrowhead Golf Course,1901 N Warner St,Alturas,CA,96101-3042,Public,9 Holes,(530) 233-3404,-120.559643,41.500251
Chardonnay Golf Club,2555 Jameson Canyon Rd,American Canyon,CA,94503,Public,54 Holes,(800) 788-0136,-122.235209,38.21624
Eagle Vines Golf Club,580 S Kelly Rd,American Canyon,CA,94558,Public,18 Holes,(707) 257-4470,-122.297518,38.33428
Anaheim Hills Golf Course,6501 E Nohl Ranch Rd,Anaheim,CA,92807-4807,Municipal,18 Holes,(714) 998-3041,-117.763791,33.839878
Dad Miller Golf Course,430 N Gilbert St,Anaheim,CA,92801-5019,Municipal,18 Holes,(714) 765-3481,-117.967601,33.835162
Greenhorn Creek Resort,711 McCauley Ranch Rd,Angels Camp,CA,95222-9562,Public,18 Holes,(888) 736-5900,-120.553726,38.06626
Antelope Green Golf Course,2721 Elverta Rd,Antelope,CA,95843-9700,Public,18 Holes,(916) 334-5764,-121.398288,38.71449
Lone Tree Golf Course,4800 Golf Course Rd,Antioch,CA,94531-8012,Municipal,18 Holes,(925) 706-4220,-121.80365,37.974657
The Golf Club at Roddy Ranch,1 Tour Way,Antioch,CA,94531-9053,Public,18 Holes,(925) 978-4653,-121.788228,37.924212
Apple Valley Country Club,15200 Rancherias Rd,Apple Valley,CA,15200,Public,18 Holes,(760) 242-3125,-117.227773,34.526018
Ashwood Golf Club,10885 Apple Valley Rd,Apple Valley,CA,10885,Public,45 Holes,(760) 240-1800,-117.232608,34.45027
Seascape Golf Club,610 Clubhouse Dr,Aptos,CA,95003-5546,Public,18 Holes,(831) 688-3214,-121.882764,36.967186
Arbuckle Golf Club,5918 Hillgate Rd,Arbuckle,CA,95912,Public,9 Holes,(530) 476-2470,-122.141513,39.011947
Santa Anita Golf Course,405 S Santa Anita Ave,Arcadia,CA,91006-3509,Municipal,18 Holes,(626) 447-7156,-118.031506,34.135556
Arcadia Golf Course,620 E Live Oak Ave,Arcadia,CA,91006-5740,Public,18 Holes,(626) 443-9367,-118.017505,34.109103
Baywood Golf & Country Club,3600 Buttermilk Ln,Arcata,CA,95521-6950,Private,18 Holes,(707) 822-3688,-124.048456,40.847754
Sequoia Woods Country Club,1000 Cypress Point Drive,Arnold,CA,95223,Semi Private,18 Holes,(209) 795-2141,-120.327754,38.255997
Meadowmont Golf Course,1684 Highway 4,Arnold,CA,95223,Public,9 Holes,(209) 795-1313,-120.35971,38.247827
Cypress Ridge,780 Cypress Ridge Pkwy,Arroyo Grande,CA,93420-6524,Public,18 Holes,(888) 781-4653,-120.57292,35.065749
Sycamore Canyon Golf Course,500 Kenmar Ln,Arvin,CA,93203-9744,Public,18 Holes,(661) 854-3163,-118.81445,35.16579
Chalk Mountain Golf Course,10000 El Bordo Ave,Atascadero,CA,10000,Municipal,18 Holes,(805) 466-8848,-120.640851,35.46895
Rancho Del Rey Golf Club,5250 Green Sands Ave,Atwater,CA,95301-9527,Public,18 Holes,(209) 358-7131,-120.581622,37.339434
Auburn Valley Golf & Country Club,8800 Auburn Valley Rd,Auburn,CA,95602-9256,Public,18 Holes,(530) 269-1837,-121.148646,39.003903
Black Oak Golf Course,2455 Black Oak Rd,Auburn,CA,95602-9399,Public,9 Holes,(530) 878-1900,-121.071228,38.967392
DarkHorse Golf Club,13450 Combie Rd,Auburn,CA,13450,Public,18 Holes,(530) 269-7900,-121.045721,39.025886
Lake of the Pines Country Club,11665 Lakeshore N,Auburn,CA,11665,Public,18 Holes,(530) 268-8337,-121.067123,39.040683
Raspberry Hills Golf Course,14500 Musso Rd,Auburn,CA,14500,Public,9 Holes,(530) 878-7818,-121.044616,38.944907
The Ridge Golf Course,2020 Golf Course Rd,Auburn,CA,95602-9526,Public,18 Holes,(530) 888-7888,-121.076914,38.948724
Catalina Island Golf Course,1 Country Club Road,Avalon,CA,90704,Public,9 Holes,(310) 510-0530,-118.329697,33.340097
