course_name,street_address,city,state,zip_code,course_type,holes,phone,longitude,latitude,osm_name,raw_acres,dist_meters,final_acres
Fireweed Meadows Golf Course,Mylofritz Ave,Anchor Point,AK,99556,Public,9 Holes,(907) 226-2582,-151.820102,59.773222,Fireweed Meadows Golf Course,54.53595676800439,1277.2189160397695,NA
Anchorage Golf Course,3651 Omalley Rd,Anchorage,AK,99507-4266,Public,18 Holes,(907) 522-3363,-149.814495,61.127089,Anchorage Golf Course,199.11717757727197,0,199.11717757727197
Russian Jack Springs Golf Course,1600 Lidia Selkregg Ln,Anchorage,AK,99508-3131,Municipal,9 Holes,(907) 343-6992,-149.788303,61.206435,Russian Jack Golf Course,27.755584763805725,0,27.755584763805725
Tanglewood Lakes Golf Club,11801 Brayton Dr,Anchorage,AK,11801,Public,9 Holes,(907) 345-4600,-149.853757,61.113415,Fox Hollow,30.239847112749338,0,30.239847112749338
Eagleglen Golf Course,4414 1st St,Elmendorf Afb,AK,99506,Public,18 Holes,(907) 552-3821,-149.824373,61.233041,Eagleglen Golf Course Elmendorf Air Force Base,233.77874854838382,74.39861107833892,233.77874854838382
Fairbanks Golf and Country Club,1735 Farmers Loop Rd,Fairbanks,AK,99709-6712,Public,9 Holes,(907) 479-6555,-147.816536,64.877632,Fairbanks Golf Course,75.22615325956032,0,75.22615325956032
North Star Golf Course,330 Golf Club Dr,Fairbanks,AK,99712-2214,Public,18 Holes,(907) 457-4653,-147.613637,64.89708,North Star Golf Course,152.75601838007665,196.69977377517412,152.75601838007665
Moose Run Golf Course,27000 Artic Valley Road,Fort Richardson,AK,27000,Public,36 Holes,(907) 428-0056,-149.542309,61.24357,NA,615.5638030646246,6073.145470304358,NA
Chena Bend Golf Course,2092 Building Gafeney,Fort Wainwright,AK,99703,Public,18 Holes,(907) 353-6223,-147.626814,64.814935,Chena Bend Golf Course,226.71442069829249,2598.9696295529047,NA
Mount Fairweather Golf Course,1 Mile Dock Road,Gustavus,AK,99826,Public,9 Holes,(907) 697-2214,-135.742963,58.420408,NA,52.34772448298379,65722.93062749652,NA
Valley of the Eagles Golf Links,1 1/2 Mile Haines Hwy,Haines,AK,99827,Public,9 Holes,(907) 766-2401,-135.481298,59.239917,Valley of the Eagles Golf Links,68.54535514051037,75.49484128481205,68.54535514051037
Black Diamond Golf Course,Mile 247 George Park Hwy Otto Lake Rd,Healy,AK,99743,Public,9 Holes,(907) 683-4653,-149.039817,63.848484,Fairbanks Golf Course,75.22615325956032,128194.13259600673,NA
Kachemak Bay Links Par 3 Golf,56910 East Rd,Homer,AK,56910,Public,9 Holes,(907) 235-0606,-151.370752,59.692919,Homer Golf Course,10.113604338187452,0,10.113604338187452
Mendenhall Golf Course,The End of Industrial Blvd,Juneau,AK,99801,Public,9 Holes,(907) 789-1221,-134.610092,58.361763,NA,52.34772448298379,0,52.34772448298379
Kenai Golf Course,1420 Lawton Dr,Kenai,AK,99611-8232,Public,18 Holes,(907) 283-7500,-151.183901,60.559592,NA,1.125220804761555,0,1.125220804761555
Bear Valley Golf Course,2 8 Mile Anton Larsen Bay Rd,Kodiak,AK,99615,Public,9 Holes,(907) 486-9793,-152.527572,57.772932,Homer Golf Course,10.113604338187452,223619.4873579493,NA
Cottonwood Country Club,Mile Post 32,Nikiski,AK,99635,Public,9 Holes,(907) 776-8745,-151.291629,60.690101,NA,118.95474844199968,15387.681935273124,NA
Palmer Golf Course,1000 Lepak Avenue,Palmer,AK,99645,Municipal,18 Holes,(907) 745-4653,-149.087712,61.584757,Fishhook Golf Course,127.40117337712194,4882.584177272393,NA
Sea Mountain Golf Course,301 Granite Creek Rd,Sitka,AK,99835,Public,9 Holes,(907) 747-5663,-135.395965,57.101605,Sea Mountain Golf Course,46.12495561529603,41.3311168403499,46.12495561529603
Birch Ridge Golf Course Inc,42223 Sterling Hwy,Soldotna,AK,42223,Public,9 Holes,(907) 262-5270,-151.007643,60.499382,Birch Ridge Golf Course,67.70951151223434,60.34163810324594,67.70951151223434
Bird Homestead Golf Course,37109 Funny River Rd,Soldotna,AK,37109,Public,9 Holes,(907) 260-4653,-150.856551,60.498969,Birch Ridge Golf Course,67.70951151223434,7826.114832910637,NA
Settlers Bay Golf Course,Mile 8 Knik Goose Bay Road,Wasilla,AK,99687,Public,18 Holes,(907) 376-5466,-149.613961,61.504628,Settler's Bay Golf Course,350.6706323673276,0,350.6706323673276
Sleepy Hollow Golf Course,2721 E Sleepy Hollow Cir,Wasilla,AK,99654,Public,9 Holes,(907) 376-5948,-149.382193,61.655225,Sleepy Hollow Golf Course,22.812782092013435,13.588709486354603,22.812782092013435
Muskeg Meadows Golf Course,Ishiyama Dr,Wrangell,AK,99929,Public,9 Holes,(907) 874-4653,-132.356586,56.473241,Muskeg Meadows Golf Course,27.75943775016872,31.498591687730677,27.75943775016872
Albertville Golf & Country Club,860 Country Club Rd,Albertville,AL,35951-3966,Private,18 Holes,(256) 878-4403,-86.198381,34.296785,Albertville Golf and Country Club,122.53986056317808,0,122.53986056317808
Willow Brook Golf Corp,134 Par Dr,Albertville,AL,35951-6165,Public,18 Holes,(256) 878-6766,-86.11883,34.3553,Willow Brook Golf Course,232.8401608593648,0,232.8401608593648
Willow Point Golf & Country Club,3054 Willow Point Rd,Alexander City,AL,35010-6264,Semi Private,18 Holes,(256) 212-1409,-85.976846,32.788959,Willow Point Golf & Country Club,206.26418555162584,0,206.26418555162584
Aliceville Country Club,Highway 14 North,Aliceville,AL,35442,Private,18 Holes,(205) 367-7868,-88.141013,33.102758,Greene County Golf Course,51.64428640063163,33106.27886139458,NA
Alpine Bay Resort,9855 Renfroe Rd,Alpine,AL,35014-6711,Public,18 Holes,(256) 268-2920,-86.300495,33.434675,Coosa Pines Golf Club,141.4705653997255,12052.860023481935,NA
Whippoorwill Golf Club,2920 County Highway 14,Altoona,AL,35952-6306,Public,18 Holes,(205) 466-7003,-86.435707,34.113605,The Whip,61.77887590280954,822.1710372346663,NA
Evans Barnes Golf Course,Lurleen B Wallace Jr College,Andalusia,AL,36420,Municipal,18 Holes,(334) 222-8400,-86.451201,31.321218,NA,60.971979538463486,16223.310783853703,NA
Andalusia Country Club,210 Country Club Dr,Andalusia,AL,36421-4204,Private,18 Holes,(334) 222-5282,-86.511445,31.315197,NA,60.971979538463486,21644.143027425158,NA
Old Pine Golf Course,24908 Harmony Church Rd,Andalusia,AL,24908,Public,9 Holes,(334) 222-3242,-86.377095,31.344885,NA,60.971979538463486,11144.063816676578,NA
Anniston Municipal Golf Course,1341 Johnston Dr,Anniston,AL,36207-4090,Municipal,9 Holes,(256) 231-7631,-85.810966,33.665031,Anniston Country Club,90.16696622177061,1517.3136488970122,NA
Cane Creek Golf Course,2247 Baltzell Gate Road,Anniston,AL,36205,Municipal,18 Holes,(256) 820-9174,-85.792399,33.71603,Cane Creek Golf Course,193.68655905564978,509.9002465197925,NA
Anniston Country Club,601 Highland Ave,Anniston,AL,36207-5856,Semi Private,18 Holes,(256) 237-8412,-85.818524,33.651845,Anniston Country Club,90.16696622177061,21.740948520148375,90.16696622177061
Indian Oaks Golf Club,201 Cherokee Trl,Anniston,AL,36206-1015,Public,18 Holes,(256) 820-4030,-85.87225,33.730704,Indian Oaks Golf Club,221.39504798167596,0,221.39504798167596
Pine Hill Country Club,175 Pine Hill Dr,Anniston,AL,36207-8047,Public,18 Holes,(256) 237-2633,-85.703307,33.671577,Pine Hill Country Club,130.59780430652955,0,130.59780430652955
Brookside Golf Course,Sundown Drive,Arab,AL,35016,Public,18 Holes,(256) 586-5765,-86.511111,34.326222,Slab Creek Golf Course,120.01461244683622,20724.609835194642,NA
Twin Lakes Golf Course,211 Golfview Dr NE,Arab,AL,35016-5412,Public,18 Holes,(256) 586-3269,-86.498066,34.343263,Slab Creek Golf Course,120.01461244683622,21714.48690914998,NA
Clay County Golf Course,158 Country Club Rd,Ashland,AL,36251-7852,Public,9 Holes,(256) 354-2814,-85.798765,33.280444,NA,74.866125125537,98.06321579649679,74.866125125537
Athens Golf & Country Club,518 Hatfield Lake Rd,Athens,AL,35611-8412,Public,9 Holes,(256) 232-0809,-86.954304,34.759613,NA,502.8227862390522,2982.7870961897884,NA
Canebrake Golf Club,23015 Founders Cir,Athens,AL,23015,Public,19 Holes,(256) 232-2412,-86.91543,34.763744,NA,502.8227862390522,0,502.8227862390522
Chriswood Golf Course,26181 Nick Davis Road,Athens,AL,26181,Public,18 Holes,(256) 232-9759,-86.857802,34.802979,NA,502.8227862390522,6370.525591410883,NA
Southern Gayles Golf Community,22230 Mooresville Rd,Athens,AL,22230,Public,18 Holes,(256) 232-9888,-86.875101,34.879828,Southern Gayles Golf Club and Grill,337.4384830382595,0,337.4384830382595
Atmore Country Club,4474 Highway 31 South,Atmore,AL,36504,Private,9 Holes,(251) 368-4486,-87.492589,31.02483,Holly Hills Country Club,65.8806627195757,37535.16716304786,NA
Wills Creek Country Club,216 Country Club Rd,Attalla,AL,35954-2603,Public,18 Holes,(256) 538-8781,-86.096727,34.009726,Attalla Country Club,123.49787617504079,31.000312251243088,123.49787617504079
Indian Pines Golf Course,900 Country Club Dr,Auburn,AL,36830-5208,Municipal,18 Holes,(334) 821-0880,-85.441306,32.62367,Pines Crossing Golf Course,152.79803201847943,0,152.79803201847943
The Auburn University Club,1650 Yarbrough Farms Blvd,Auburn,AL,36830-2679,Semi Private,18 Holes,(334) 821-8381,-85.505203,32.632656,NA,272.7343752555438,0,272.7343752555438
Auburn Links At Mill Creek,826 Shell Toomer Pkwy,Auburn,AL,36830-6958,Public,18 Holes,(334) 887-5151,-85.507329,32.554634,Auburn Links,184.446309564844,136.50225624334328,184.446309564844
Moore's Mill Golf Club,1957 Fairway Dr,Auburn,AL,36830-7627,Public,18 Holes,(334) 826-8989,-85.445537,32.580497,Moore's Mill Club,168.35696467465667,0,168.35696467465667
Holly Hills Country Club,Highway 59 South,Bay Minette,AL,36507,Private,9 Holes,(251) 937-8230,-87.773055,30.787791,Holly Hills Country Club,65.8806627195757,0,65.8806627195757
Frank House Municipal Golf Course,801 Golf Course Rd,Bessemer,AL,35022-6001,Municipal,18 Holes,(205) 424-9540,-86.991577,33.367315,Frank House Municipal Golf Course,127.14634722717777,0,127.14634722717777
Woodward Golf & Country Club,2141 Wheel Dr,Bessemer,AL,35020-2611,Private,18 Holes,(205) 424-5500,-86.957834,33.428521,RTJ Oxmoor Valley Golf,876.4308051509028,5278.884395362693,NA
Bent Brook Golf Course,7900 Dickey Springs Rd,Bessemer,AL,35022-6378,Public,54 Holes,(205) 424-2368,-86.973348,33.33316,NA,258.6634099761393,96.66912433509816,258.6634099761393
Roebuck Municipal Golf Course,8920 Roebuck Blvd,Birmingham,AL,35206-1524,Municipal,18 Holes,(205) 836-7318,-86.711209,33.582031,Roebuck Municipal Golf Course,111.53722638101955,0,111.53722638101955
Grayson Valley Country Club,2201 Grayson Valley Dr,Birmingham,AL,35235-2027,Private,18 Holes,(205) 854-2382,-86.642887,33.645754,Grayson Valley Country Club,139.62374663860078,0,139.62374663860078
Greystone Golf & Country Club,4100 Greystone Dr,Birmingham,AL,35242-6409,Private,18 Holes,(205) 986-5125,-86.651369,33.429533,NA,408.26923779332003,0,408.26923779332003
Greystone Golf & Country Club,330 Legacy Way,Birmingham,AL,35242-6042,Private,18 Holes,(205) 986-5160,-86.622465,33.454637,Greystone G&CC Legacy,164.9706278983386,0,164.9706278983386
Hoover Country Club,3140 Club Dr,Birmingham,AL,35226-2704,Private,18 Holes,(205) 822-5707,-86.81748,33.399573,Hoover Country Club,120.03400417160965,7.265457210960269,120.03400417160965
Pine Tree Country Club,5100 Pine Whispers Dr,Birmingham,AL,35210-3429,Private,18 Holes,(205) 956-1599,-86.653914,33.527852,Pine Tree Country Club,170.61078306229743,2.283035363968424,170.61078306229743
Vestavia Country Club,400 Beaumont Dr,Birmingham,AL,35216-1307,Private,27 Holes,(205) 822-8300,-86.772297,33.454757,Vestavia Country Club,178.67993084771317,21.412658386838146,178.67993084771317
Mountain Brook Club,19 Beechwood Rd,Birmingham,AL,35213-3955,Private,18 Holes,(205) 871-3769,-86.744309,33.495525,Mountain Brook Club,154.91762265328921,1.1513818145189025,154.91762265328921
Altadena Valley Golf & Country Club,2651 Alta Vista Dr,Birmingham,AL,35243,Semi Private,18 Holes,(530) 674-0475,-86.748825,33.417863,Vestavia Country Club,178.67993084771317,4245.234701930639,NA
Heatherwood Country Club,400 Saint Annes Dr,Birmingham,AL,35244-3621,Semi Private,18 Holes,(205) 991-7576,-86.749207,33.397505,Hoover Country Club,120.03400417160965,6011.561723542249,NA
Inverness Country Club,1 Country Club Drive,Birmingham,AL,35242-4031,Semi Private,18 Holes,(205) 991-8610,-86.766597,33.496983,Country Club of Birmingham,248.81261610240298,0,248.81261610240298
Riverchase Country Club,2000 Club Rd,Birmingham,AL,35244-1412,Semi Private,18 Holes,(205) 988-8111,-86.826049,33.338098,NA,4.23193301214712,76.3527300226304,4.23193301214712
Country Club of Birmingham,3325 Country Club Rd,Birmingham,AL,35213-3636,Semi Private,36 Holes,(205) 879-4611,-86.765447,33.49841,Country Club of Birmingham,248.81261610240298,0,248.81261610240298
Eagle Point Golf Club,4500 Eagle Point Dr,Birmingham,AL,35242-6906,Public,18 Holes,(205) 991-9070,-86.669263,33.399671,NA,408.26923779332003,2123.1124961313167,NA
Robert Trent Jones Golf Trail At Oxmoor Valley,100 Sunbelt Pkwy,Birmingham,AL,35211-5958,Public,54 Holes,(205) 942-1177,-86.877968,33.419409,RTJ Oxmoor Valley Golf,876.4308051509028,0,876.4308051509028
Ross Bridge Golf Resort,167 Sunbelt Pkwy,Birmingham,AL,35211-5959,Public,18 Holes,(205) 949-3185,-86.879498,33.392116,RTJ Ross Bridge Golf,302.0258801622976,0,302.0258801622976
West Side Golf Center,3501 Cleburn Ave SW,Birmingham,AL,35221-1031,Public,9 Holes,(205) 923-2979,-86.89096,33.468352,RTJ Oxmoor Valley Golf,876.4308051509028,4911.7150438181025,NA
Boaz Golf Club,1715 Al Highway 205,Boaz,AL,35956-5901,Public,18 Holes,(256) 593-5501,-86.153561,34.173445,Boaz Golf and Country Club,127.37946683202544,0.3094327991562983,127.37946683202544
Dogwood Hills Golf Course,2385 Douglas Ave,Brewton,AL,36426-3555,Municipal,9 Holes,(251) 809-1750,-87.068132,31.144816,Dogwood Hills Golf Course,77.9575031620052,8.261124046725103,77.9575031620052
Country Club of Brewton,700 Clubhouse Rd,Brewton,AL,36426-3376,Public,18 Holes,(251) 867-3408,-87.059413,31.209551,Dogwood Hills Golf Course,77.9575031620052,6601.867870013057,NA
Capstone Golf Club,16000 Capstone Blvd,Brookwood,AL,16000,Public,18 Holes,(205) 462-0590,-87.33057,33.237681,NA,86.05942884058457,14720.10162388874,NA
Brundidge Country Club,Spring Hill Road,Brundidge,AL,36010,Private,9 Holes,(334) 735-3680,-85.816771,31.7202,Troy Country Club,108.1349841084692,15236.199247210188,NA
Hidden Valley Golf Course,607 County Road 393,Bryant,AL,35958-7031,Public,18 Holes,(256) 495-9608,-85.661585,34.974544,NA,169.58031083748403,16911.35204267562,NA
Choctaw Country Club,Country Club Drive,Butler,AL,36904,Private,9 Holes,(205) 459-2529,-88.188385,32.090062,NA,86.70424943712923,0,86.70424943712923
Timberline Golf Club,300 Timberline Trl,Calera,AL,35040-4679,Public,18 Holes,(205) 668-7888,-86.734914,33.102898,Montevallo Golf Course,104.08698451904918,12857.514456096429,NA
Roland Cooper State Park Golf Course,285 Deer Run Dr,Camden,AL,36726-3825,Municipal,9 Holes,(334) 682-4838,-87.245535,32.055353,Selma Country Club,119.28236350460931,43369.439670083106,NA
Cherokee Country Club,Off Highway 9,Centre,AL,35960,Public,18 Holes,(256) 927-5070,-85.647439,34.112623,Briarmeade Golf Club,96.81828627131763,31830.074813144056,NA
Cahaba Falls Country Club,530 2nd Street North,Centreville,AL,35042,Public,18 Holes,(205) 926-9323,-87.137499,32.968185,NA,120.17167063488925,200.44544103885158,120.17167063488925
Deerfield Country Club,16461 Saint Stephens Ave,Chatom,AL,16461,Public,18 Holes,(251) 847-2056,-88.205439,31.454237,"H.W. Pearce, Jr. Memorial Park",81.69186661297894,29962.92930877735,NA
Deer Valley Links,246 Cain Rd,Chelsea,AL,35043-9020,Public,18 Holes,(205) 678-2292,-86.71452,33.322705,NA,15.827576040301484,9556.913667812678,NA
Coosa Pines Golf Course,16615 Plant Rd,Childersburg,AL,16615,Public,18 Holes,(256) 378-5529,-86.358914,33.334061,Coosa Pines Golf Club,141.4705653997255,36.998695799451724,141.4705653997255
Mill Creek,18350 Lakeview Dr,Citronelle,AL,18350,Municipal,18 Holes,(251) 866-7881,-88.310005,31.073651,NA,91.85027853833016,91.00592868884661,91.85027853833016
Clanton Country Club,1 Country Club Drive,Clanton,AL,35045,Public,9 Holes,(205) 755-0415,-86.609619,32.81974,Clanton Country Club,63.17245619855453,62.04186561357558,63.17245619855453
Magnolia Meadows Golf Course,315 Highway 47 S,Columbiana,AL,35051-9345,Public,18 Holes,(205) 670-0001,-86.605427,33.169582,Magnolia Meadows Golf Course,60.13742766778697,0,60.13742766778697
Riverbend Golf Course,1612 Mountain View Rd,Cordova,AL,35550-4028,Public,18 Holes,(205) 648-4393,-87.134163,33.791068,Horse Creek Golf Course,238.09098149593925,8172.594244624581,NA
Valley Landing Golf Course,985 County Road 595,Courtland,AL,35618-3460,Municipal,18 Holes,(256) 637-8735,-87.351811,34.670338,NA,229.51762680490256,15203.82362078365,NA
Roundabout Plantation,321 Roundabout Dr,Cowarts,AL,36321-5506,Public,18 Holes,(334) 793-3300,-85.306541,31.226876,NA,292.98784597245503,0,292.98784597245503
Terri Pines Country Club,700 Pine Hill Dr,Cullman,AL,35057-6961,Semi Private,18 Holes,(256) 739-0720,-86.889256,34.224233,TP Country Club,123.56912393993834,34.19976489095763,123.56912393993834
Chesley Oaks Golf Course,1035 County Road 1583,Cullman,AL,35058-1400,Public,18 Holes,(256) 796-9808,-86.670194,34.249113,TP Country Club,123.56912393993834,19907.13804034565,NA
StillWaters Golf and Country Club,797 Moonbrook Dr,Dadeville,AL,36853-5645,Public,18 Holes,(256) 825-1353,-85.805971,32.745816,Lakewinds Golf Course,116.71069299120033,15791.618440954047,NA
Lake Forest Yacht & Country Club,1 Golf Ter,Daphne,AL,36526-7657,Semi Private,27 Holes,(251) 626-9324,-87.895203,30.649638,NA,260.55580667342576,0,260.55580667342576
Isle Dauphine Club Golf Course,100 Orleans Dr,Dauphin Island,AL,36528-4314,Public,18 Holes,(251) 861-2433,-88.11597,30.247426,NA,22.422632719491276,31848.40095014224,NA
Point Mallard Golf Club,2600A Point Mallard Pkwy SE,Decatur,AL,35603-5604,Municipal,18 Holes,(256) 341-4925,-86.930105,34.545337,Burning Tree Country Club,78.12939947909791,2113.2705384930982,NA
Decatur Country Club,2401 Country Club Rd SE,Decatur,AL,35601-6544,Private,18 Holes,(256) 353-3039,-86.96625,34.567514,Decatur Golf and Country Club,92.2607019192433,0,92.2607019192433
Burningtree Country Club,2521 Burningtree Dr SE,Decatur,AL,35603-5138,Semi Private,18 Holes,(256) 355-5982,-86.933742,34.518897,Burning Tree Country Club,78.12939947909791,80.25707774365172,78.12939947909791
Cedar Ridge Golf Course,3030 Modaus Rd SW,Decatur,AL,35603-4254,Public,18 Holes,(256) 353-4653,-87.049833,34.561342,Repar Golf DP,11.337785613011444,2928.374988538942,NA
Indian Hills Golf Course,127 Par Dr,Decatur,AL,35603,Public,18 Holes,(256) 773-9939,-86.931083,34.494825,Indian Hills Golf Club,103.71179389943842,0,103.71179389943842
The Ravine Golf Course,748 Sportsplex Road,Demopolis,AL,36732,Municipal,18 Holes,(334) 289-1414,-87.791047,32.486124,NA,129.5710026435772,6523.958838138647,NA
Demopolis Country Club,1620 Country Club Dr,Demopolis,AL,36732-3440,Private,18 Holes,(334) 289-0880,-87.859405,32.499999,NA,129.5710026435772,24.32311705772068,129.5710026435772
Horse Creek Golf Club,1745 Highway 78,Dora,AL,35062-2322,Municipal,18 Holes,(205) 648-1499,-87.058918,33.750913,Horse Creek Golf Course,238.09098149593925,78.31124244674153,238.09098149593925
Dothan Country Club,200 S Cherokee Ave,Dothan,AL,36301-1282,Private,18 Holes,(334) 792-6650,-85.417632,31.22387,Dothan Country Club,119.44799647497021,0,119.44799647497021
Dothan National Golf Club & Hotel,7410 S U S 231,Dothan,AL,36301-7822,Public,18 Holes,(800) 214-1150,-85.404517,31.120801,Dothan National Golf Club,174.2777578205971,168.10054361836814,174.2777578205971
Green Hill Golf Course,2600 Campbellton Hwy,Dothan,AL,36301-7636,Public,18 Holes,(334) 792-3597,-85.421542,31.15937,Dothan National Golf Club,174.2777578205971,4217.868397352832,NA
Highland Oaks Golf Course,904 Royal Pkwy,Dothan,AL,36305-6922,Public,36 Holes,(334) 712-2820,-85.49638,31.226907,NA,47.92413099443901,875.6414611224361,NA
Highland Oaks Par 3 Golf Course,904 Royal Pkwy,Dothan,AL,36305-6922,Public,9 Holes,(334) 712-2820,-85.49638,31.226907,NA,47.92413099443901,875.6414611224361,NA
High Pointe Golf Club,4603 Golfway Dr,Eight Mile,AL,36613-3733,Municipal,9 Holes,(251) 452-6531,-88.168015,30.756027,NA,10.460774357099256,4854.914909842378,NA
Elba Country Club,1477 Country Club Way,Elba,AL,36323,Private,9 Holes,(334) 897-6600,-86.097119,31.437234,NA,243.69699687728516,23905.04876162312,NA
Soldiers Creek Golf Club At Woerner Preserve,12096 County Road 95,Elberta,AL,12096,Public,18 Holes,(251) 986-8633,-87.547564,30.403182,Soldiers Creek Golf Club,194.77999902181028,645.6192212238489,NA
Marcum Golf Course,9621 Bagley Rd,Empire,AL,35063-5119,Public,18 Holes,(205) 647-3377,-86.956142,33.792773,Horse Creek Golf Course,238.09098149593925,10546.216424822645,NA
Enterprise Country Club,3000 Ozark Hwy,Enterprise,AL,36330-8246,Private,18 Holes,(334) 347-2726,-85.831816,31.360296,Enterprise Country Club,157.3978558789958,269.5956698875561,157.3978558789958
Tartan Pines Golf Club,423 Tartan Way,Enterprise,AL,36330-2315,Public,18 Holes,(334) 393-8000,-85.879854,31.312646,NA,243.69699687728516,75.14318033720608,243.69699687728516
Lake Point Resort State Park Golf Course,104 Lakepoint Dr,Eufaula,AL,36027-4612,Municipal,18 Holes,(334) 687-6677,-85.114176,31.98767,Lakepoint State Park Resort Golf Course,210.22304746410066,177.62153582282565,210.22304746410066
Eufaula Country Club,2650 Country Club Rd,Eufaula,AL,36027-5907,Private,18 Holes,(334) 687-2007,-85.172012,31.88752,Eufaula Country Club,125.02825225062922,0,125.02825225062922
Red Eagle Golf Course,101 Merion Dr,Eufaula,AL,36027-3631,Public,18 Holes,(334) 687-8003,-85.157631,31.821922,Eufaula Country Club,125.02825225062922,6588.630938193686,NA
Greene County Golf Course,Lower Gainesville Road,Eutaw,AL,35462,Municipal,9 Holes,(205) 372-4144,-87.938072,32.852601,Greene County Golf Course,51.64428640063163,0,51.64428640063163
Evergreen Golf Course,Highway 31 North,Evergreen,AL,36401,Public,9 Holes,(251) 578-5214,-86.887753,31.43712,Evergreen Golf Club,78.84464709312951,0,78.84464709312951
Quail Creek Golf Course,19841 Quail Creek Dr,Fairhope,AL,19841,Municipal,18 Holes,(251) 990-0240,-87.844066,30.513396,NA,47.47313169866401,257.96997030061783,47.47313169866401
Rock Creek Golf Club,140 Clubhouse Dr,Fairhope,AL,36532-3372,Public,18 Holes,(251) 928-4223,-87.88837,30.573041,NA,14.36268979359419,618.4460191977439,NA
Fayette Country Club,303 County Road 16,Fayette,AL,35555,Private,9 Holes,(205) 932-4079,-87.872075,33.685932,NA,58.30157760543337,35571.15640793326,NA
Dogwood Hills Golf Club,26460 Al Highway 71,Flat Rock,AL,26460,Public,18 Holes,(256) 632-3634,-85.658124,34.824072,NA,169.58031083748403,185.38457154450973,169.58031083748403
Blackberry Trail Golf Course,112 Clubhouse Dr,Florence,AL,35630-8922,Municipal,18 Holes,(256) 740-8825,-87.630083,34.861748,Blackberry Trail Golf Course,154.98915304891233,0,154.98915304891233
Florence Golf & Country Club,450 Country Club Dr,Florence,AL,35630-0734,Private,18 Holes,(256) 766-1427,-87.714906,34.810585,Blackberry Trail Golf Course,154.98915304891233,8924.779676241766,NA
Glenlakes Golf Club,9530 Clubhouse Dr,Foley,AL,36535-9326,Public,27 Holes,(251) 955-1220,-87.637127,30.364024,NA,422.21639028750684,0,422.21639028750684
Gulf Links Executive Golf Course,3901 S McKenzie St,Foley,AL,36535-3719,Public,18 Holes,(251) 970-1444,-87.682934,30.357377,NA,73.83775200254671,13.859597503735714,73.83775200254671
Magnolia Springs Golf,10831 Magnolia Springs Hwy,Foley,AL,10831,Public,9 Holes,(251) 965-4653,-87.768043,30.381983,NA,73.83775200254671,8557.782782299724,NA
De Soto Country Club,502 Crystal Lake Dr NE,Fort Payne,AL,35967-4204,Private,9 Holes,(256) 845-2571,-85.694491,34.462253,Desoto Country Club and Golf Course,61.2174826420509,15.690397418371251,61.2174826420509
Terrapin Hills Country Club,5501 Club Dr NW,Fort Payne,AL,35967-8241,Private,18 Holes,(256) 845-4624,-85.687898,34.509586,NA,168.99240434664472,0,168.99240434664472
Silver Wings Golf Course,Combat Road Bldg 20067,Fort Rucker,AL,20067,Public,54 Holes,(334) 598-2449,-85.692736,31.352046,Silver Wings Golf Course,224.56731091568062,0,224.56731091568062
Twin Bridges Golf Course,901 Riverbend Dr,Gadsden,AL,35901-2569,Municipal,18 Holes,(256) 549-4866,-85.985059,34.025973,Gadsden Country Club,127.3907528793897,5624.076415070054,NA
Gadsden Country Club,1884 Rainbow Dr,Gadsden,AL,35901-5504,Private,18 Holes,(256) 546-2011,-86.012825,33.975807,Gadsden Country Club,127.3907528793897,0,127.3907528793897
River Trace Golf Club,464 Nowlin St,Gadsden,AL,35903-1055,Public,18 Holes,(256) 546-8821,-85.986479,34.01053,Gadsden Country Club,127.3907528793897,4014.3790377136897,NA
Castle Pines Country Club,1600 Quail Ridge Dr,Gardendale,AL,35071-2873,Public,18 Holes,(205) 631-3140,-86.781718,33.660967,Castle Pines Golf Course,165.18255636926185,2.061068541497828,165.18255636926185
River Oaks Golf Course,203 River Oaks Rd,Geneva,AL,36340,Public,9 Holes,(334) 684-6190,-85.862528,31.028007,NA,179.02343145586025,21453.502919381735,NA
Briarmeade Golf Course,505 Ralph Ave,Glencoe,AL,35905-1014,Private,18 Holes,(256) 492-1150,-85.946376,33.96101,Briarmeade Golf Club,96.81828627131763,0,96.81828627131763
The Robert Trent Jones Golf Trail At Silver Lake,1 Sunbelt Pkwy,Glencoe,AL,35905-8840,Public,54 Holes,(256) 892-3268,-85.927814,33.884072,Silver Lakes,481.40923375896745,0,481.40923375896745
The Robert Trent Jones Golf Trail Par 3 At Silver Lake,1 Sunbelt Pkwy,Glencoe,AL,35905-8840,Public,9 Holes,(256) 892-3268,-85.927814,33.884072,Silver Lakes,481.40923375896745,0,481.40923375896745
Hatchett Creek Golf Course,Mount Olive Road,Goodwater,AL,35072,Public,9 Holes,(256) 839-5612,-86.099665,33.056103,Lakewinds Golf Course,116.71069299120033,28305.745269770832,NA
Mountain View Golf Course,3200 Mountain View Dr,Graysville,AL,35073-9691,Public,45 Holes,(205) 674-8362,-86.940498,33.633344,Castle Pines Golf Course,165.18255636926185,14309.009907453894,NA
Lakeview Country Club,Millwood Road,Greensboro,AL,36744,Public,9 Holes,(334) 624-8654,-87.634199,32.693137,Lakeview Country Club,118.4221349094336,2.750856185994237,118.4221349094336
Greenville Country Club,902 Fort Dale Rd,Greenville,AL,36037-3611,Private,9 Holes,(334) 382-8312,-86.639508,31.846232,NA,64.65768601428799,52.58276292991968,64.65768601428799
The Robert Trent Jones Golf Trail At Cambrian Ridg,101 Sunbelt Pkwy,Greenville,AL,36037-7935,Public,63 Holes,(334) 382-9787,-86.686282,31.896111,Cambrian Ridge,369.77624146408675,0,369.77624146408675
Pikeville Country Club,1310 Country Club Rd,Guin,AL,35563-3114,Private,18 Holes,(205) 921-9577,-87.905842,33.971968,NA,100.33024015223032,43113.91796838012,NA
Gulf State Park Golf Course,20115 State Highway 135,Gulf Shores,AL,20115,Municipal,18 Holes,(251) 948-4653,-87.678015,30.265806,The Golf Club of the Wharf,167.4198614604167,1909.5525603255837,NA
Craft Farms Golf Resort,3840 Cotton Creek Blvd,Gulf Shores,AL,36542-2729,Public,36 Holes,(251) 968-7500,-87.669298,30.304795,NA,16.746251008063847,64.56852492114123,16.746251008063847
Kiva Dunes,815 Plantation Rd,Gulf Shores,AL,36542-8286,Public,18 Holes,(251) 540-7000,-87.888474,30.235553,NA,22.422632719491276,10113.49966595873,NA
Peninsula Golf & Racquet Club,20 Peninsula Blvd,Gulf Shores,AL,36542-8280,Public,54 Holes,(251) 968-8009,-87.773899,30.251587,NA,39.48133805714425,8.982691740370678,39.48133805714425
The Golf Club of the Wharf,520 Clubhouse Dr,Gulf Shores,AL,36542-3490,Public,18 Holes,(251) 968-4501,-87.701114,30.270101,The Golf Club of the Wharf,167.4198614604167,0,167.4198614604167
Lake Guntersville State Park Golf Course,7966 Al Highway 227,Guntersville,AL,35976-8280,Municipal,18 Holes,(256) 571-5458,-86.217249,34.369603,Eagle's Nest Golf Course,172.69137005083536,2922.878896342749,NA
Gunter's Landing,1000 Gunters Landing Rd,Guntersville,AL,35976-8627,Public,18 Holes,(256) 582-3000,-86.255397,34.394562,Eagle's Nest Golf Course,172.69137005083536,4891.580416758039,NA
Stoney Mountain Golf Course,5200 Georgia Mountain Rd,Guntersville,AL,35976-7229,Public,18 Holes,(256) 582-2598,-86.388367,34.374594,Eagle's Nest Golf Course,172.69137005083536,17226.46870157344,NA
Haleyville Country Club,1331 Airport Road,Haleyville,AL,35565,Private,18 Holes,(205) 486-3906,-87.604364,34.277349,NA,100.33024015223032,0,100.33024015223032
Cullman Municipal Golf Club,2321 County Road 490,Hanceville,AL,35077-8125,Municipal,18 Holes,(256) 739-2386,-86.831362,34.110408,Cullman Golf Course,124.14113291321895,227.10188882196388,124.14113291321895
Quail Creek Golf Course & Conference Center,233 Quail Creek Dr,Hartselle,AL,35640-6952,Public,18 Holes,(256) 784-5033,-86.863833,34.390421,Indian Hills Golf Club,103.71179389943842,12338.187454260526,NA
Harvest Hills,791 Harvest Rd,Harvest,AL,35749-8625,Public,18 Holes,(256) 890-0705,-86.740041,34.859823,Southern Gayles Golf Club and Grill,337.4384830382595,10939.162131844843,NA
Plantation Golf Club,11900 State Highway 160,Hayden,AL,11900,Public,27 Holes,(205) 559-8200,-86.668003,33.949571,NA,175.43482772240714,10658.1727238027,NA
Headland Country Club,4175 State Highway 134 E,Headland,AL,36345-6403,Public,9 Holes,(334) 693-2324,-85.260701,31.351977,NA,292.98784597245503,13753.789144053566,NA
Silver Ridge Golf Club,195 Golf Club Dr,Horton,AL,35980-8796,Public,18 Holes,(256) 593-4055,-86.372523,34.16761,Slab Creek Golf Course,120.01461244683622,38.558249635121435,120.01461244683622
Huntsville Municipal Golf Course,2151 Airport Rd SW,Huntsville,AL,35801-5364,Municipal,18 Holes,(256) 880-1151,-86.584758,34.688979,Lakeside Golf Course,55.390519262093456,4146.733898988335,NA
Huntsville Country Club,2601 Oakwood Ave NW,Huntsville,AL,35810-4309,Private,18 Holes,(256) 859-3110,-86.612913,34.749339,The Links at Redstone,496.69160214775775,6297.9329430884,NA
Valley Hill Country Club,8300 Valley Hill Dr SE,Huntsville,AL,35802-3228,Private,27 Holes,(256) 883-7620,-86.543117,34.657309,Lakeside Golf Course,55.390519262093456,17.924735697385348,55.390519262093456
Redstone Golf Course,4140 Goss Road,Huntsville,AL,35898-0001,Semi Private,45 Holes,(256) 883-7977,-86.668185,34.698434,The Links at Redstone,496.69160214775775,10.453276234963353,496.69160214775775
The Ledges Country Club,32 Castle Down Dr,Huntsville,AL,35802-1295,Semi Private,18 Holes,(256) 883-4191,-86.518341,34.671148,NA,18.14938776933329,383.5420451607893,18.14938776933329
Monrovia Golf Course,7130B Highway 72 W,Huntsville,AL,35806,Public,18 Holes,(256) 837-9469,-86.714329,34.75548,Insanity Mini Golf,0.6248536611038934,6978.372016295983,NA
Sunset Landing Golf Course,346 James Record Rd SW,Huntsville,AL,35824-1514,Public,18 Holes,(256) 464-5050,-86.773548,34.658224,Sunset Landing Golf Course,140.27967299609858,115.87818653814979,140.27967299609858
Silver King Golf Club,7960 Edgar Roberts Rd,Irvington,AL,36544-4144,Public,18 Holes,(251) 824-9660,-88.228975,30.44651,Cypress Creek Golf Course,111.18620328445263,20262.447752747867,NA
Jackson Links Golf Course,Pierce Memorial Park,Jackson,AL,36545,Public,9 Holes,(251) 246-9993,-87.891251,31.507903,"H.W. Pearce, Jr. Memorial Park",81.69186661297894,112.14045924070702,81.69186661297894
Lake Winds Golf Course,95 County Road 40,Jacksons Gap,AL,36861-3142,Municipal,18 Holes,(256) 825-9860,-85.873055,32.885532,Lakewinds Golf Course,116.71069299120033,0,116.71069299120033
Stoney Brook Golf Course,1505 Country Club Dr SW,Jacksonville,AL,36265-3367,Public,18 Holes,(256) 435-3114,-85.773421,33.784875,Cane Creek Golf Course,193.68655905564978,6303.144401751656,NA
Musgrove Country Club,916 Country Club Rd,Jasper,AL,35503-6006,Semi Private,18 Holes,(205) 221-7900,-87.287201,33.905893,Musgrove Country Club,178.45665662457623,0,178.45665662457623
Curry Golf Course,100 Boardwalk Ln,Jasper,AL,35503-5677,Public,9 Holes,(205) 221-5678,-87.211115,33.958805,Musgrove Country Club,178.45665662457623,8224.488005184787,NA
Bear Branch Golf Club,3947 Holly Grove Rd,Jasper,AL,35501-7412,Public,9 Holes,(205) 522-9237,-87.327934,33.835633,Musgrove Country Club,178.45665662457623,8453.526542265616,NA
Turtle Point Yacht & Country Club,1000 Country Club Dr,Killen,AL,35645,Private,18 Holes,(256) 757-2155,-87.545134,34.843621,Turtle Point Yacht and Country Club,252.36189982719722,0,252.36189982719722
Riverside Country Club,2001 Cherry Drive,Lanett,AL,36863,Public,9 Holes,(334) 644-4503,-85.215039,32.87264,NA,242.1693449538325,0,242.1693449538325
Linden Country Club,Highway 28 East,Linden,AL,36748,Private,18 Holes,(334) 295-8678,-87.767996,32.294162,NA,129.5710026435772,24203.966872343284,NA
Livingston Country Club,Country Club Road,Livingston,AL,35470,Private,9 Holes,(205) 652-9931,-88.201233,32.600854,NA,86.71303659586599,0,86.71303659586599
Steelwood Country Club,31925 Steelwood Ridge Rd,Loxley,AL,31925,Private,18 Holes,(251) 964-4800,-87.722198,30.698332,NA,16.582113060618287,257.4226716551549,16.582113060618287
Crenshaw County Rec Club,265 Mount Ida Highway,Luverne,AL,36049,Private,9 Holes,(334) 335-5404,-86.267266,31.702645,NA,87.50684880736051,111.36886705431857,87.50684880736051
Marion Military Institute Golf Course,1101 Washington St,Marion,AL,36756-3213,Public,9 Holes,(334) 683-2178,-87.318588,32.624491,Marion Military Institute Golf Course,57.500197061230715,683.4936730494062,NA
Cypress Tree Golf Courses,1461 March Street,Montgomery,AL,36112,Semi Private,36 Holes,(334) 263-7587,-86.360922,32.390946,NA,167.5732182405151,0,167.5732182405151
Lakeview Country Club,21026 Agnes Dr,McCalla,AL,21026,Public,9 Holes,(205) 477-6125,-87.144449,33.281056,NA,258.6634099761393,15929.873624252594,NA
Cloudmont Ski & Golf Resort,721 County Road 614,Mentone,AL,35984-2434,Public,9 Holes,(256) 634-4344,-85.603204,34.537302,NA,168.99240434664472,7354.355098293277,NA
Colonial Golf Course,400 Colonial Dr,Meridianville,AL,35759-1008,Public,18 Holes,(256) 828-0431,-86.597048,34.873146,The Links at Redstone,496.69160214775775,19253.79976412672,NA
Fox Run Golf Course,870 McCollum Rd,Meridianville,AL,35759-1716,Public,18 Holes,(256) 828-7564,-86.537211,34.87911,The Links at Redstone,496.69160214775775,22108.054696545052,NA
The Pines Golf Club,307 Deatsville Hwy,Millbrook,AL,36054-1634,Municipal,18 Holes,(334) 285-7529,-86.375389,32.521738,NA,130.55181535984116,2.785722725216764,130.55181535984116
Azalea City Golf Course,1000 Gaillard Dr,Mobile,AL,36608-2512,Municipal,18 Holes,(251) 342-4221,-88.162398,30.710567,Azalea City Golf Course,171.44740795092162,711.401466883892,NA
Gulf Pines Golf Club,167 Old Bay Front Dr,Mobile,AL,36615-1304,Municipal,18 Holes,(251) 431-6413,-88.061674,30.640932,Heron Lakes Country Club,167.84784104547634,5951.847131707254,NA
Magnolia Grove Golf Club,7001 Magnolia Grove Pkwy,Mobile,AL,36618-4824,Municipal,54 Holes,(251) 645-0075,-88.21261,30.737516,NA,10.460774357099256,122.3292647819804,10.460774357099256
Country Club of Mobile,4101 Wimbledon Dr W,Mobile,AL,36608-2361,Private,27 Holes,(251) 342-5138,-88.15335,30.68628,Spring Hill Golf Course,130.33711162408306,996.1967011954919,NA
Heron Lakes Country Club,3851 Government Blvd,Mobile,AL,36693-4314,Private,18 Holes,(251) 666-7070,-88.133828,30.642802,Heron Lakes Country Club,167.84784104547634,88.34518121978753,167.84784104547634
Spring Hill College Golf Course,4000 Dauphin St,Mobile,AL,36608-1780,Public,18 Holes,(251) 380-4655,-88.146485,30.685821,Spring Hill Golf Course,130.33711162408306,366.90954562689893,130.33711162408306
Vanity Fair Golf & Tennis Club,613 Golf Dr,Monroeville,AL,36460-2287,Private,18 Holes,(251) 575-4700,-87.340089,31.519735,NA,192.81938987926392,21.578260079958213,192.81938987926392
Montevallo Golf Club,1481 Shelby County Highway 204,Montevallo,AL,35115,Municipal,18 Holes,(205) 665-8057,-86.873531,33.102673,Montevallo Golf Course,104.08698451904918,0,104.08698451904918
Gateway Park Executive Golf Course,3800 Davenport Pkwy,Montgomery,AL,36105,Municipal,18 Holes,(334) 284-7920,-86.326554,32.335042,Montgomery Country Club,113.47524439997376,4361.026076870664,NA
Lagoon Park Golf Course,2855 Lagoon Park Dr,Montgomery,AL,36109-1112,Municipal,18 Holes,(334) 271-7000,-86.221294,32.400294,Lagoon Park Golf Course,165.8436070428315,0,165.8436070428315
Arrowhead Golf & Country Club,50 Ocala Dr,Montgomery,AL,36117-4139,Private,18 Holes,(334) 272-7180,-86.144678,32.378926,NA,205.42210991165746,0,205.42210991165746
Bonnie Crest Country Club,1410 Federal Dr,Montgomery,AL,36107-1124,Semi Private,18 Holes,(334) 272-9316,-86.272271,32.398724,Lagoon Park Golf Course,165.8436070428315,4413.245385198982,NA
Montgomery Country Club,3001 Narrow Lane Rd,Montgomery,AL,36106-2216,Semi Private,18 Holes,(334) 264-7198,-86.282368,32.351498,Montgomery Country Club,113.47524439997376,0,113.47524439997376
Wynlakes Golf & Country Club,7900 Wynlakes Blvd,Montgomery,AL,36117-5165,Semi Private,18 Holes,(334) 279-0297,-86.149479,32.349475,Wynlakes Golf and Country Club,211.29019269339034,0,211.29019269339034
Cottonwood Golf Club,7160 Byron Nelson Blvd,Montgomery,AL,36116-6046,Public,18 Holes,(334) 281-3344,-86.174376,32.247291,NA,236.68228604495246,0,236.68228604495246
Magnolia Golf Club,3346 Elsberry Rd,Montgomery,AL,36116-3018,Public,18 Holes,(334) 288-3310,-86.270866,32.318126,Montgomery Country Club,113.47524439997376,3279.126784487304,NA
Tallapoosa Lakes Golf Course,1501 Dozier Rd,Montgomery,AL,36117-6422,Public,36 Holes,(334) 260-4900,-86.135717,32.419455,River Run,139.26293395920356,0,139.26293395920356
Green Briar Golf Course,1130 Morris Majestic Rd,Morris,AL,35116-1832,Public,18 Holes,(205) 647-2680,-86.792639,33.75806,Green Brian Golf Course,41.055789576112176,0,41.055789576112176
Deer Run Golf Course,1175 County Road 100,Moulton,AL,35650-5117,Municipal,18 Holes,(256) 974-7384,-87.311735,34.433911,Deer Run Golf Course,155.41242676988253,385.57942950214624,155.41242676988253
Cypress Lakes Golf & Country Club,1311 E 6th St,Muscle Shoals,AL,35661-3519,Public,18 Holes,(256) 386-7783,-87.659718,34.730226,Spring Creek Golf Course,127.60245235193157,3686.7988378016203,NA
The Shoals Golf Club,990 Sunbelt Pkwy,Muscle Shoals,AL,35661-4672,Public,36 Holes,(256) 446-5111,-87.535206,34.817814,Robert Trent Jones Golf Trail at the Shoals,867.0913555338113,0,867.0913555338113
Hidden Meadows Golf Course,13000 Old Cove Rd,Northport,AL,13000,Public,18 Holes,(205) 339-3673,-87.638899,33.293178,Hidden Meadows Golf Course,301.5208528618964,0,301.5208528618964
Heritage Golf Course,671 Heritage Rd,Oneonta,AL,35121-3022,Public,18 Holes,(205) 274-2390,-86.46493,33.973678,Whispering Pines Golf Course,82.10688112982872,6406.407637528466,NA
Limestone Springs Golf Club,3000 Colonial Dr,Oneonta,AL,35121-3560,Public,18 Holes,(205) 274-4653,-86.56757,33.895796,NA,175.43482772240714,51.89891819255327,175.43482772240714
Whispering Pines Golf Club,765 Morton Rd,Oneonta,AL,35121-7316,Public,18 Holes,(205) 274-9136,-86.407295,33.92928,Whispering Pines Golf Course,82.10688112982872,0,82.10688112982872
Saugahatchee Country Club,3800 Bent Creek Rd,Opelika,AL,36804-7602,Private,18 Holes,(334) 749-3441,-85.417515,32.600131,Moore's Mill Club,168.35696467465667,2574.251941557332,NA
Grand National Golf Course,3000 Sunbelt Pkwy,Opelika,AL,36801-1117,Public,54 Holes,(334) 749-9011,-85.426491,32.676058,RTJ Grand National Golf,844.8113079378472,0,844.8113079378472
Opp Country Club,Highway 84 West,Opp,AL,36467,Private,9 Holes,(334) 493-4342,-86.284816,31.279539,NA,60.971979538463486,0,60.971979538463486
Orange Beach Golf Center,4700 Easy St,Orange Beach,AL,36561,Municipal,9 Holes,(251) 981-4653,-87.60668,30.290876,NA,31.69567746916626,54.4213671429119,31.69567746916626
The Robert Trent Jones Golf Trail@ Hampton Cove,450 Old Highway 431,Owens Cross Roads,AL,35763-9304,Public,54 Holes,(256) 551-1818,-86.471284,34.659987,NA,15.824596829323495,3665.7498836061045,NA
Cider Ridge Golf Club,200 Apple Blossom Way,Oxford,AL,36203-4806,Public,18 Holes,(256) 831-7222,-85.750792,33.594656,Cider Ridge Golf Club,367.14570976372227,0,367.14570976372227
Ozark Country Club,815 Country Club Dr,Ozark,AL,36360-4731,Public,18 Holes,(334) 774-2615,-85.614841,31.474832,Silver Wings Golf Course,224.56731091568062,14518.627554188311,NA
Ballantrae Golf Course,1300 Ballantrae Club Dr,Pelham,AL,35124-6200,Municipal,18 Holes,(205) 620-4653,-86.755997,33.260424,NA,48.81797984901352,10034.871197884713,NA
Oak Mt State Park Golf Course,Oak Mt State Park,Pelham,AL,35124,Municipal,27 Holes,(205) 620-2522,-86.760144,33.332374,NA,15.827576040301484,5229.975509539228,NA
Pell City Country Club,2021 Golf Course Rd,Pell City,AL,35128,Private,18 Holes,(205) 338-2066,-86.258419,33.559699,Pell City Country Club,64.09227178460316,401.802555233306,64.09227178460316
Pine Harbor Golf & Racquet Club,1218 Pine Harbor Rd,Pell City,AL,35128-6717,Semi Private,18 Holes,(205) 338-4354,-86.272062,33.524899,Pell City Country Club,64.09227178460316,4183.175965732197,NA
Lakewood Golf Course,2800 Lakewood Dr,Phenix City,AL,36867-2000,Municipal,18 Holes,(334) 291-4726,-85.020077,32.504099,Lakewood Golf Course,131.84847889564216,594.0994020649333,NA
Cumberland Lake Country Club,2150 Cumberland Lake Dr,Pinson,AL,35126-2042,Public,18 Holes,(205) 680-4653,-86.670198,33.770023,Green Brian Golf Course,41.055789576112176,11252.24487482338,NA
Marriott Lakewood Golf Club,1 Grand Blvd,Point Clear,AL,36564,Semi Private,36 Holes,(251) 928-1406,-87.918457,30.473009,NA,16.865820329507628,7899.6482873668465,NA
Prattville Country Club,723 Highway 82 Bypass,Prattville,AL,36067,Private,18 Holes,(334) 365-4497,-86.490568,32.45151,Legislator,203.27834295966093,8158.23937534285,NA
Capitol Hill Golf Course,2600 Constitution Ave,Prattville,AL,36066-7713,Public,54 Holes,(334) 285-1114,-86.402021,32.447063,Legislator,203.27834295966093,0,203.27834295966093
Hidden Oaks Golf Club,469 Kinzie Ln,Rainbow City,AL,35906-9011,Public,9 Holes,(256) 413-4653,-86.065727,33.95149,Gadsden Country Club,127.3907528793897,4476.621626745251,NA
Hidden Oaks Par 3 Golf Course,463 Kinzie Ln,Rainbow City,AL,35906,Public,9 Holes,(256) 413-4653,-86.065718,33.951858,Gadsden Country Club,127.3907528793897,4458.98339080225,NA
Rainsville Golf & Country Club,390 Pine Hill Rd,Rainsville,AL,35986-4664,Public,9 Holes,(256) 638-8846,-85.806916,34.475419,NA,70.3565981467895,180.82326217040767,70.3565981467895
Redmont Recreation Club Golf Course,1400 Redmont Dr Nw,Red Bay,AL,35582,Public,18 Holes,(256) 356-8070,-88.147419,34.46454,Redmont Country Club,158.16351176110803,0,158.16351176110803
The Knolls Country Club,Highway 30 East,Reform,AL,35481,Private,9 Holes,(205) 375-2173,-87.980425,33.374022,NA,58.30157760543337,11.992653649360882,58.30157760543337
Roanoke Country Club,1172 Country Club Rd,Roanoke,AL,36274-4055,Public,9 Holes,(334) 863-6416,-85.382288,33.132333,NA,65.848605468649,978.4792818061708,NA
Joe Wheeler State Park Golf Course,201 McLean Dr,Rogersville,AL,35652-6405,Municipal,18 Holes,(256) 247-9308,-87.319689,34.827766,NA,229.51762680490256,1549.8596007976996,NA
Twin Pines Golf Course,1855 Country Club Dr,Russellville,AL,35654-3208,Semi Private,18 Holes,(256) 332-4191,-87.675625,34.571422,Twin Pines Golf Course,157.4042337004464,0,157.4042337004464
Goose Pond Colony Golf Course,417 Ed Hembree Dr,Scottsboro,AL,35769-7859,Municipal,18 Holes,(256) 574-5353,-86.079295,34.598099,Scottsboro Country Club and Golf Course,58.68723920757877,4918.172866754844,NA
Goose Pond Plantation Golf Course,67 Plantation Pointe Rd,Scottsboro,AL,35768-7178,Municipal,18 Holes,(256) 259-0101,-86.130105,34.639542,Goosepond Plantation Golf Course,187.4084449489539,0,187.4084449489539
Scottsboro Golf & Country Club,Highway #79 Bypass,Scottsboro,AL,35768,Private,9 Holes,(256) 574-1356,-86.041767,34.637641,Scottsboro Country Club and Golf Course,58.68723920757877,6.0121431175665885,58.68723920757877
Broken Arrow Golf Course,399 Broken Arrow Dr,Scottsboro,AL,35769-8519,Public,18 Holes,(256) 582-9888,-86.069645,34.609413,Scottsboro Country Club and Golf Course,58.68723920757877,3382.816834215429,NA
Selma Country Club,103 W Dallas Ave,Selma,AL,36701-6560,Semi Private,18 Holes,(334) 874-6907,-87.044127,32.40602,Selma Country Club,119.28236350460931,19.307835502786478,119.28236350460931
Craig Golf Course,262 Craig Industrial Park,Selma,AL,36701-8139,Public,9 Holes,(334) 872-4451,-86.986899,32.36128,Selma Country Club,119.28236350460931,6858.225745128539,NA
Occidental Chemical Co. Golf Course,1000 N Wilson Dam Hwy,Sheffield,AL,35660,Semi Private,9 Holes,(256) 389-2301,-87.692605,34.75973,Spring Creek Golf Course,127.60245235193157,3598.4934923241635,NA
Shoal Creek,100 New Williamsburg Dr,Shoal Creek,AL,35242-5940,Private,27 Holes,(205) 991-9000,-86.615399,33.43884,Shoal Creek,216.91594298132722,34.985392091922726,216.91594298132722
TimberCreek Golf Club,9650 Timbercreek Blvd,Spanish Fort,AL,36527-5604,Public,54 Holes,(251) 621-9900,-87.85673,30.670241,NA,34.16520047445899,333.01950462760664,34.16520047445899
Oak Hill Country Club,101 Country Club Rd,Sulligent,AL,35586-4462,Private,9 Holes,(205) 698-9918,-88.119665,33.837625,NA,58.30157760543337,52494.55286253733,NA
Sylacauga Country Club,1 Fairway Dr,Sylacauga,AL,35150,Private,18 Holes,(256) 249-8084,-86.241561,33.216314,Coosa Pines Golf Club,141.4705653997255,16751.592692087455,NA
FarmLinks Golf Club,2200 FarmLinks Blvd,Sylacauga,AL,35151,Public,18 Holes,(205) 403-4653,-86.419684,33.11773,FarmLinks Golf Course at Pursell Farms,501.8672636023105,0,501.8672636023105
Talladega Municipal Golf Course,65230 Hwy 77 North,Talladega,AL,65230,Municipal,18 Holes,(256) 362-8151,-86.107165,33.446152,Pell City Country Club,64.09227178460316,18228.308639039686,NA
Timber Ridge Golf Club,101 Ironaton Road,Talladega,AL,35160,Public,18 Holes,(256) 362-0346,-86.071216,33.435546,Pell City Country Club,64.09227178460316,21505.19717462146,NA
Lakeside Country Club,5881 Cherokee Trl,Tallassee,AL,36078-3803,Public,18 Holes,(334) 283-4090,-85.947715,32.609354,Willow Point Golf & Country Club,206.26418555162584,18844.759827256257,NA
Meadowlake Golf Course,8350 Theodore Dawes Rd W,Theodore,AL,36582,Public,9 Holes,(251) 401-0274,-88.23757,30.580861,Cypress Creek Golf Course,111.18620328445263,10461.590634234986,NA
Pineview Country Club,1250 Country Club Dr,Thomasville,AL,36784,Private,9 Holes,(334) 636-5938,-87.762552,31.907746,NA,86.70424943712923,44385.744251110205,NA
Troy Country Club,1 Club Rd,Troy,AL,36079,Private,9 Holes,(334) 566-1169,-85.965345,31.778483,Troy Country Club,108.1349841084692,0,108.1349841084692
Trojan Oaks Golf Course,Troy St Univ  Adams Center 215,Troy,AL,36082-0001,Public,9 Holes,(334) 670-3377,-85.955571,31.802189,Troy Country Club,108.1349841084692,2719.4207417607895,NA
Trussville Country Club,7905 Roper Rd,Trussville,AL,35173-3105,Public,18 Holes,(205) 655-2095,-86.55624,33.603457,NA,110.18538985709755,0,110.18538985709755
Ol' Colony Golf Complex,401 Old Colony Rd,Tuscaloosa,AL,35406-4200,Municipal,18 Holes,(205) 562-3201,-87.534657,33.260213,Ol' Colony Golf Complex,414.30121368729476,0,414.30121368729476
Woodland Forrest Country Club,5604 Woodland Forrest Dr,Tuscaloosa,AL,35405-5643,Private,18 Holes,(205) 556-1232,-87.46721,33.155495,NA,86.05942884058457,0,86.05942884058457
Country Club of Tuscaloosa,3700 6th St,Tuscaloosa,AL,35401-1358,Semi Private,18 Holes,(205) 759-5535,-87.584279,33.205993,Indian Hills Golf Course,130.30665742051016,4164.084250009239,NA
Indian Hills Country Club,1650 Highway 82,Tuscaloosa,AL,35406,Semi Private,18 Holes,(205) 349-1504,-87.541789,33.23371,Indian Hills Golf Course,130.30665742051016,29.364147630325174,130.30665742051016
NorthRiver Yacht Club,3100 Yacht Club Way NE,Tuscaloosa,AL,35406-1126,Semi Private,18 Holes,(205) 345-0202,-87.498139,33.294354,NorthRiver Yacht Club,239.2165935154922,0,239.2165935154922
Spring Creek Golf Course,800 Woodmont Dr,Tuscumbia,AL,35674-3952,Municipal,9 Holes,(256) 386-5670,-87.695097,34.715528,Spring Creek Golf Course,127.60245235193157,279.36312061034863,127.60245235193157
Tennessee Valley Country Club,101 Maple St,Tuscumbia,AL,35674-4416,Private,9 Holes,(256) 383-3689,-87.704489,34.718458,Spring Creek Golf Course,127.60245235193157,29.87016865211174,127.60245235193157
Cherokee Ridge Country Club,4000 Cherokee Ridge Dr,Union Grove,AL,35175-7943,Semi Private,18 Holes,(256) 498-5300,-86.568835000000007,34.419236,NA,21.970120269709973,25712.79774213905,NA
Union Springs Country Club,Country Club Drive,Union Springs,AL,36089,Private,9 Holes,(334) 738-5015,-85.72653,32.152813,NA,236.68228604495246,42665.147703774775,NA
Valley Grande Golf Club,1009 Warrior Dr,Valley Grande,AL,36701-1604,Public,18 Holes,(334) 877-4433,-87.115341,32.486742,Selma Country Club,119.28236350460931,10675.949353523618,NA
Rolling Hills Golf Course,9565 Lee Rd 279,Valley,AL,36854-6811,Public,9 Holes,(334) 749-1972,-85.202628,32.702326,NA,242.1693449538325,17897.091185418423,NA
Old Overton Club,7251 Old Overton Club Dr,Vestavia Hills,AL,35242-2520,Private,18 Holes,(205) 972-9001,-86.681762,33.491622,Old Overton Club,111.7575624814639,2.7017777487255255,111.7575624814639
Emerald Mountain Golf Club,245 Mountain View Rd,Wetumpka,AL,36093-3846,Public,18 Holes,(334) 514-8082,-86.105816,32.448205,NA,325.4140192207121,0,325.4140192207121
Quail Walk Country Club,2110 Holtville Rd,Wetumpka,AL,36092-5706,Public,18 Holes,(334) 567-5014,-86.227318,32.563393,Quail Walk Golf Course,163.14302606270238,25.564933695650584,163.14302606270238
Sumter Country Club,51880 Country Club Rd,York,AL,51880,Private,9 Holes,(205) 392-9911,-88.313146,32.510017,NA,58.857300337568674,0,58.857300337568674
Highland Park Golf Course,3300 Highland Ave S,Birmingham,AL,35205-1411,Public,18 Holes,(205) 322-1902,-86.779392,33.512479,Highland Park Golf Course,97.48660380636915,0,97.48660380636915
The Links At Tuscaloosa,1800 Links Blvd,Tuscaloosa,AL,35405-4871,Public,18 Holes,(205) 247-9990,-87.560594,33.155844,The Links,151.70139895164635,6.249823326192445,151.70139895164635
Eagle Crest Golf Course,3926 Golf Course Dr,Alma,AR,72921-7896,Public,18 Holes,(479) 632-8857,-94.16868,35.500064,Cedars Country Club,49.369716631988894,16520.93735400937,NA
River Valley Golf Course,5829 Highway 64 E,Alma,AR,72921-7900,Public,18 Holes,(479) 997-1188,-94.15348,35.493705,Cedars Country Club,49.369716631988894,17647.451459284795,NA
Turtle Pointe Golf Club,182 Club Dr,Arkadelphia,AR,71923-8102,Public,18 Holes,(870) 246-6642,-93.09088,34.14483,NA,155.90721921742076,46.221474084898865,155.90721921742076
Millwood Landing Golf & R V  Resort,596 Highway 317,Ashdown,AR,71822-8467,Public,18 Holes,(870) 898-6674,-94.01366,33.712909,Millwood Country Club,182.88510434322887,69.434949570305,182.88510434322887
Southern Fairways LLC,2104 Buck Wright Road,Ashdown,AR,71822,Public,18 Holes,(870) 898-5649,-94.131614,33.692565,Millwood Country Club,182.88510434322887,11108.998956927979,NA
Cypress Creek Country Club,8302 Highway #64 East,Augusta,AR,72006,Private,9 Holes,(870) 347-3211,-91.274188,35.284923,Bald Knob Country Club,63.12627402073346,28450.77826288986,NA
Bald Knob Country Club,216 Country Club Road,Bald Knob,AR,72010,Public,9 Holes,(501) 724-3537,-91.591594,35.313464,Bald Knob Country Club,63.12627402073346,0,63.12627402073346
Deer Trails Golf Course,Bldg #3910 Arkansas Boulevard,Barling,AR,72923,Public,9 Holes,(479) 478-6971,-94.303348,35.296597,Ben Geren Golf Course,269.6933451645977,5067.78316116961,NA
Batesville Municipal Golf Course,1850 Chaney Dr,Batesville,AR,72501-7638,Municipal,9 Holes,(870) 698-2431,-91.636614,35.758832,Batesville Municipal Golf Course,51.50943566020173,163.46769321613218,51.50943566020173
Batesville Country Club,1100 24th St,Batesville,AR,72501-7438,Private,9 Holes,(870) 793-2525,-91.62625,35.768137,Batesville Municipal Golf Course,51.50943566020173,1151.1981185711331,NA
The Course At Eagle Mountain,800 Gap Rd,Batesville,AR,72501-8685,Public,18 Holes,(870) 612-8000,-91.583536,35.748918,The Course at Eagle Mountain,230.2969172465054,15.526586168458847,230.2969172465054
Bella Vista Country Club,101 Town Ctr NE,Bella Vista,AR,72714-2403,Private,126 Holes,(479) 855-8130,-94.193794,36.456498,NA,63.84617131904266,30.682711604645796,63.84617131904266
Longhills Golf Club,327 Highway 5 N,Benton,AR,72015-8554,Public,18 Holes,(501) 316-3000,-92.551093,34.60085,NA,3.8521919358351195,2038.3232070559652,NA
Silver Springs Country Club,6301 Trace Creek Rd,Benton,AR,72015-6972,Public,18 Holes,(501) 778-4121,-92.653712,34.530638,NA,122.27686331596507,0,122.27686331596507
Links At Bentonville Golf & Athletic Club,2101 SE Hilton Head Dr,Bentonville,AR,72712-6352,Public,9 Holes,(479) 271-0163,-94.184783,36.349281,NA,20.67890911048468,0,20.67890911048468
Carroll County Golf Course,Highway 62 West,Berryville,AR,72616,Public,9 Holes,(870) 423-3280,-93.595458,36.381646,NA,127.75351782210896,13667.375847421923,NA
De Gray State Park Golf Course,2027 State Park Maintenance Rd,Bismarck,AR,71929-7308,Municipal,18 Holes,(501) 865-2807,-93.163421,34.255162,Degray State Park Golf Course,235.20975755261782,182.49561307572475,235.20975755261782
Caddo Creek Golf Course,4009 Highway 7,Bismarck,AR,71929-7165,Public,9 Holes,(501) 865-3666,-93.159963,34.280331,Degray State Park Golf Course,235.20975755261782,2633.2147348522976,NA
Thunder Bayou Golf Links,1229 Perimeter Rd,Blytheville,AR,72315-6234,Municipal,18 Holes,(870) 532-2621,-89.920237,35.950081,Thunder Bayou Golf Links,247.93466919973847,47.38174262180764,247.93466919973847
Blytheville Country Club,Highway 61 North,Blytheville,AR,72315,Private,18 Holes,(870) 763-7821,-89.911007,35.950614,NA,130.02937657855944,0,130.02937657855944
Cherokee Creek Golf Club,Highway 10 East,Booneville,AR,72927,Public,18 Holes,(479) 675-5858,-93.894188,35.14363,NA,52.45332789419354,30749.853726558365,NA
Brinkley Country Club,Highway 70 West,Brinkley,AR,72021,Private,9 Holes,(870) 734-2967,-91.228206,34.856172,NA,64.03764743735735,41967.37678912124,NA
Hurricane Golf and Country Club,4300 Hurricane Dr,Bryant,AR,72022-6201,Semi Private,18 Holes,(501) 847-2609,-92.521604,34.605737,NA,133.69461796000755,0,133.69461796000755
Rivercliff Golf Club,110 Club House Lane,Bull Shoals,AR,72619,Public,18 Holes,(870) 445-4800,-92.585217,36.364377,NA,204.42908924820551,14502.700943971293,NA
Rolling Hills Country Club Inc,271 Country Club Rd,Cabot,AR,72023-7303,Private,18 Holes,(501) 843-5231,-91.979856,34.935244,Rolling Hills Country Club,171.02530185533922,4.809952596763064,171.02530185533922
Greystone Country Club,57 Greystone Blvd,Cabot,AR,72023-8175,Public,36 Holes,(501) 941-4441,-92.063556,35.022134,Greystone Country Club,263.6512700853054,0,263.6512700853054
Camden Country Club,1915 W Washington St,Camden,AR,71701-3133,Semi Private,18 Holes,(870) 836-8414,-92.861865,33.585389,Camden Country Club,125.16208540342434,623.8763177548095,NA
Highland Golf Course,707 Highway 274,Camden,AR,71701-7350,Public,9 Holes,(870) 574-9080,-92.735186,33.615139,NA,62.846372114112924,20.700722043502374,62.846372114112924
The Creeks Golf Course LLC,1499 S Main St,Cave Springs,AR,72718-9400,Public,18 Holes,(479) 248-1000,-94.236941,36.246757,The Creeks,142.80168214145593,130.4350414900178,142.80168214145593
Cherokee Village North Course,75 Pro Shop Rd,Cherokee Village,AR,72529-2611,Semi Private,18 Holes,(870) 257-3430,-91.551334,36.317763,NA,164.74889589431194,4779.320689750322,NA
Cherokee Village South Course,#5 Laguna Drive,Cherokee Village,AR,72529,Semi Private,18 Holes,(870) 257-2555,-91.595674,36.288613,NA,164.74889589431194,442.37082640939076,164.74889589431194
Pines Golf Club,18340 Hwy 79,Clarendon,AR,18340,Public,9 Holes,(870) 462-8374,-91.154559,34.69131,NA,64.03764743735735,36463.1333240884,NA
Clarksville Country Club,401 W Country Club Dr,Clarksville,AR,72830-9108,Public,9 Holes,(479) 754-3026,-93.487037,35.450776,NA,348.77032252964256,38934.34476672744,NA
Red River Golf Club Inc,360 Factory Rd,Clinton,AR,72031-6742,Public,9 Holes,(501) 745-8774,-92.445717,35.584084,NA,30.99019995447179,7.578015982829427,30.99019995447179
Centennial Valley Golf Course,1600 Centennial Club Dr,Conway,AR,72034-8111,Semi Private,18 Holes,(501) 513-2522,-92.501924,35.101208,Centennial Valley,40.105602249376574,113.19133451245189,40.105602249376574
Conway Country Club,555 Country Club Rd,Conway,AR,72034-7279,Semi Private,18 Holes,(501) 329-9887,-92.480488,35.086774,Conway Country Club,110.1952253001411,0.28398510735906823,110.1952253001411
Cadron Valley Country Club,3400 Irby Dr,Conway,AR,72034-7313,Public,9 Holes,(501) 336-0909,-92.483753,35.107429,Centennial Valley,40.105602249376574,1274.0786728776166,NA
The Greens At Nutters Chapel,1705 S Salem Rd,Conway,AR,72034,Public,18 Holes,(501) 329-5867,-92.473809,35.049963,Conway Country Club,110.1952253001411,3983.69779212399,NA
Victory Lake Golf Course,536 E Elm St,Corning,AR,72422-7511,Municipal,9 Holes,(870) 857-6378,-90.571705,36.40584,NA,59.3798328159215,25.593896876211204,59.3798328159215
Prairie Country Club,Highway #52 North,Crossett,AR,71635,Private,9 Holes,(870) 364-2456,-91.896602,33.175525,Lake Village Country Club,86.16620739161067,61192.59889981253,NA
Chamberlyne Country Club,10614 Country Club Dr,Danville,AR,10614,Public,18 Holes,(479) 495-4100,-93.371005,35.105832,NA,348.77032252964256,0,348.77032252964256
Lions Den Golf Club,11044 Bay Ridge Dr,Dardanelle,AR,11044,Public,18 Holes,(479) 229-4162,-93.215378,35.25786,NA,348.77032252964256,20818.38628531783,NA
De Queen Country Club and Lodge,Route 70 East,De Queen,AR,71832,Private,18 Holes,(870) 642-8800,-94.278822,34.046782,Millwood Country Club,182.88510434322887,43513.750651179325,NA
Oak Hills Country Club,RR 1,De Witt,AR,72042,Private,9 Holes,(870) 946-3891,-91.385147,34.305869,Stuttgart Country Club,135.75603951202578,23120.968184900004,NA
Diamond Hills Country Club,20701 Highway 7 North,Diamond City,AR,20701,Public,18 Holes,(870) 422-7613,-92.922129,36.46558,Diamond Hills Country Club,157.82740145349052,2205.9517395175976,NA
Tannenbaum Golf Club,5 Kustrin Dr,Drasco,AR,72530-9151,Public,18 Holes,(501) 362-5577,-92.056779,35.559388,Thunderbird Golf Course,43.77175227772995,3778.926411281384,NA
Lions Club Municipal Golf Course,East 19th & Martin Luther King Blvd,El Dorado,AR,71730,Municipal,18 Holes,(870) 881-4180,-92.647674,33.236988,NA,136.615080958666,0,136.615080958666
El Dorado Golf & Country Club,101 Shady Side St,El Dorado,AR,71730-3147,Private,18 Holes,(870) 863-7380,-92.661157,33.238957,El Dorado Golf & Country Club,99.72257608503267,72.67768581458124,99.72257608503267
The Resurrection Course at Mystic Creek,1000 N Wyatt,El Dorado,AR,71730,Public,18,(870) 312-0723,-92.731619,33.227591,Mystic Creek Golf Club,219.1834880736365,18.141960439449715,219.1834880736365
England Country Club,Highway 161,England,AR,72046,Private,9 Holes,(501) 842-2781,-92.011471,34.542492,England Country Club,87.94093531660067,0,87.94093531660067
Indian Hills Country Club,Snead Drive,Fairfield Bay,AR,72088,Private,18 Holes,(501) 884-3852,-92.249026,35.619657,NA,6.417348372247324,25.29087770838009,6.417348372247324
Mountain Ranch Golf Club,820 Lost Creek Pkwy,Fairfield Bay,AR,72088-3630,Public,18 Holes,(501) 884-3400,-92.288285,35.610854,NA,21.326490656229055,3307.9118029306273,NA
Golf Club At Valley View,11520 Club House Pkwy,Farmington,AR,11520,Public,18 Holes,(479) 267-1096,-94.262382,36.012815,Fayetteville Country Club,115.28184562375338,9086.691162187657,NA
Fayetteville Country Club,3335 S Country Club Dr,Fayetteville,AR,72701-7156,Private,18 Holes,(479) 442-5112,-94.157179,36.029947,Fayetteville Country Club,115.28184562375338,0,115.28184562375338
Paradise Valley Athletic Club,3728 N Old Missouri Rd,Fayetteville,AR,72703-6502,Private,18 Holes,(479) 521-5841,-94.130007,36.118802,Paradise Valley Golf and Athletic Club,117.72244748751503,0,117.72244748751503
Blessings Golf Club,5826 Clear Creek Blvd,Fayetteville,AR,72704-9355,Semi Private,18 Holes,(479) 444-6330,-94.201823,36.13177,NA,265.83524497467823,0,265.83524497467823
Lakeside Par 3,200 W Village Lake Dr,Fayetteville,AR,72703-4092,Public,9 Holes,(479) 442-7748,-94.159746,36.09962,Lakeside Village Golf Course,11.187977517053184,49.19262671454822,11.187977517053184
Razorback Park Golf Course,2514 W Lori Dr,Fayetteville,AR,72704,Public,18 Holes,(479) 443-5862,-94.19474,36.097964,NA,265.83524497467823,2872.316579503249,NA
Stonebridge Meadows Golf Club,3495 E Goff Farm Rd,Fayetteville,AR,72701-7527,Public,18 Holes,(479) 571-3673,-94.112647,36.045276,Fayetteville Country Club,115.28184562375338,4337.859866895155,NA
The Links At Fayetteville,2300 W Player Ln,Fayetteville,AR,72704,Public,9 Holes,(479) 966-4330,-94.211993,36.079466,Lakeside Village Golf Course,11.187977517053184,5178.758317327976,NA
Fordyce Country Club,Country Club Road,Fordyce,AR,71742,Private,9 Holes,(870) 352-2264,-92.469942,33.813018,NA,62.846372114112924,32793.392432160115,NA
Forrest City Country Club,922 E Cross St,Forrest City,AR,72335-3959,Private,18 Holes,(870) 633-3380,-90.780207,35.008165,Forrest City Country Club,117.66607078806545,94.46384233288306,117.66607078806545
Ridgecrest Country Club,Barrow Hill Road,Forrest City,AR,72335,Private,9 Holes,(870) 633-9863,-90.767642,35.060809,NA,71.23624948478545,65.80355126370682,71.23624948478545
Ben Geren Regional Park Golf Course,7200 Zero St,Fort Smith,AR,72903-6589,Municipal,45 Holes,(479) 646-5301,-94.354514,35.326029,Ben Geren Golf Course,269.6933451645977,917.1214840359185,NA
Fianna Hills Country Club,1 Essex Pl,Fort Smith,AR,72908-9040,Semi Private,18 Holes,(479) 646-5134,-94.413055,35.293613,Ben Geren Golf Course,44.66941256579913,3678.043547414747,NA
Hardscrabble Country Club,5211 Cliff Dr,Fort Smith,AR,72903-4630,Semi Private,18 Holes,(479) 783-3731,-94.384052,35.349195,Hardscrabble Country Club,147.9070835697325,0,147.9070835697325
Fort Smith Country Club,5500 Midland Blvd,Fort Smith,AR,72904-1712,Public,9 Holes,(479) 783-4653,-94.370373,35.425037,Cedars Country Club,49.369716631988894,3498.775194389224,NA
The First Tee of Fort Smith  The Jack Stephens Yo,5800 Geren Rd,Fort Smith,AR,72916-9730,Public,9 Holes,(479) 648-9833,-94.370224,35.318144,Ben Geren Golf Course,269.6933451645977,92.26690092576943,269.6933451645977
The Links of Fort Smith,5100 S Zero St,Fort Smith,AR,72903-6944,Public,9 Holes,(479) 648-9691,-94.37663,35.326946,The Links at Fort Smith Golf & Athetic Club,18.86043806122607,189.77371336895672,18.86043806122607
Glenwood Country Club,584 Highway 70 E,Glenwood,AR,71943-8904,Public,18 Holes,(870) 356-4422,-93.505799,34.338358,Degray State Park Golf Course,235.20975755261782,32963.293646475446,NA
Persimmon Ridge Golf Club,1 Fairway Dr,Greenbrier,AR,72058-8806,Public,9 Holes,(501) 679-5423,-92.31987,35.279956,Centennial Valley,40.105602249376574,25147.92992460158,NA
Vache Grasse Country Club,891 Country Club Road,Greenwood,AR,72936,Public,18 Holes,(479) 996-4191,-94.226664,35.200598,NA,52.45332789419354,4.736618708484434,52.45332789419354
Red Martin Country Club,1661 Highway 53 S,Gurdon,AR,71743-9326,Private,9 Holes,(870) 353-9981,-93.142201,33.872164,Gurdon Golf Course,51.36593737797825,141.61301417654448,51.36593737797825
Harrison Country Club,Highway 62-65 North,Harrison,AR,72601,Public,18 Holes,(870) 741-2443,-93.127951,36.263359,Harrison Country Club,38.610662433807434,19.972553423341136,38.610662433807434
The Links At Harrison,1919 Club Cir,Harrison,AR,72601-8886,Public,9 Holes,(870) 365-3621,-93.137437,36.253133,Harrison Country Club,38.610662433807434,1115.3771977124034,NA
Grand Prairie Country Club,682 Country Club Rd,Hazen,AR,72064-9893,Public,9 Holes,(870) 255-3043,-91.575256,34.822943,NA,322.0375514644616,31187.466285170252,NA
Red Apple Inn & Country Club,325 Club Dr,Heber Springs,AR,72543-7917,Semi Private,18 Holes,(501) 362-3131,-92.106171,35.496522,Thunderbird Golf Course,43.77175227772995,6672.860437329154,NA
Lost Creek Golf Club,1104 Industrial Park Rd,Heber Springs,AR,72543-8526,Public,18 Holes,(501) 362-2582,-91.966041,35.504502,Thunderbird Golf Course,43.77175227772995,6582.172713943095,NA
Riverland Country Club,175 Riverland Dr,Heber Springs,AR,72543-8713,Public,9 Holes,(501) 362-7541,-91.961962,35.486465,Thunderbird Golf Course,43.77175227772995,7871.832902969479,NA
Thunderbird Country Club,2909 Case Ford Rd,Heber Springs,AR,72543-6004,Public,9 Holes,(501) 362-5200,-92.039816,35.523462,Thunderbird Golf Course,43.77175227772995,0,43.77175227772995
Holiday Island Golf Course,1 Country Club Dr,Holiday Island,AR,72631-5106,Public,27 Holes,(479) 253-9511,-93.72561,36.461261,NA,127.75351782210896,0,127.75351782210896
Hope Country Club,3605 Patmos Rd,Hope,AR,71801-9328,Private,18 Holes,(870) 777-8182,-93.579263,33.631352,Prescott Country Club,72.97637530836693,27763.784492835013,NA
Cedar Glade Golf Club,900 4th Street,Horseshoe Bend,AR,72512,Public,18 Holes,(870) 670-4653,-91.759992,36.218556,NA,234.915496008994,621.7520941116028,NA
The Course At Turkey Mountain,3 Club Rd,Horseshoe Bend,AR,72512-2717,Public,18 Holes,(870) 670-5252,-91.764348,36.229235,NA,234.915496008994,271.99549966263606,234.915496008994
Belvedere Country Club,385 Belvedere Dr,Hot Springs National Park,AR,71901-9145,Public,18 Holes,(501) 321-3591,-93.009484,34.546205,NA,140.7956479948773,11.021780675006564,140.7956479948773
Balboa Golf Course,111 Balboa Way,Hot Springs Village,AR,71909-6919,Private,18 Holes,(501) 922-1504,-92.938687,34.634737,NA,437.64186432156436,0,437.64186432156436
Coronado Golf Course,199 Surtidor Way,Hot Springs Village,AR,71909-6832,Private,18 Holes,(501) 922-2355,-92.946674,34.643742,NA,197.5912858485411,8.419263442016657,197.5912858485411
Cortez Golf Course,299 Cortez Rd,Hot Springs Village,AR,71909-3609,Private,27 Holes,(501) 922-1590,-92.985694,34.699148,NA,288.37692768703766,28.638391323296883,288.37692768703766
DeSoto Golf Course,102 Clubhouse Dr,Hot Springs Village,AR,71909-3046,Private,18 Holes,(501) 922-0001,-93.042658,34.667498,DeSoto Golf Course,174.2399265165806,6.782190648437615,174.2399265165806
Granada Golf Course,250 Maderas Dr,Hot Springs Village,AR,71909-7989,Private,18 Holes,(501) 922-3095,-92.86302,34.649326,NA,391.0288375216226,0,391.0288375216226
Isabella Golf Course,110 Iniciador Way,Hot Springs Village,AR,71909-7827,Private,36 Holes,(501) 922-5505,-92.86296,34.635184,NA,34.58388044811739,177.1593753277654,34.58388044811739
Magellan Golf Course,451 Ponce de Leon Dr,Hot Springs Village,AR,71909-8101,Private,18 Holes,(501) 922-4497,-92.89353,34.626501,NA,220.9994277832702,1.6285267924184061,220.9994277832702
Ponce De Leon Golf Course,300 Ponce de Leon Dr,Hot Springs Village,AR,71909-8102,Private,18 Holes,(501) 922-4250,-92.893593,34.650653,NA,522.4918806558804,0,522.4918806558804
Diamante Golf & Country Club,2000 Country Club Dr,Hot Springs Village,AR,71909-8500,Semi Private,18 Holes,(501) 922-4191,-92.863411,34.641651,Diamante Country Club,452.432023632057,207.002034166133,452.432023632057
Diamondhead Golf & Country Club,245 Independence Dr,Hot Springs,AR,71913-7730,Public,18 Holes,(501) 262-3734,-92.949232,34.437534,Hot Springs Country Club,253.96155385841732,8222.186502194463,NA
Hot Springs Country Club,101 Country Club Dr,Hot Springs,AR,71901-8035,Public,36 Holes,(501) 624-2661,-93.030801,34.480592,Hot Springs Country Club,253.96155385841732,20.880655534125392,253.96155385841732
Lakeside Golf Club,418 Wilsons Lake Rd,Hot Springs,AR,71901-7954,Public,9 Holes,(501) 262-1826,-92.979683,34.456312,Hot Springs Country Club,253.96155385841732,4795.073995214707,NA
Lakeview Golf Club,121 Essex Park Ter,Hot Springs,AR,71901-8352,Public,9 Holes,(501) 262-0050,-92.983786,34.470837,Hot Springs Country Club,253.96155385841732,4035.4883616543734,NA
Magic Hills Public Golf Course,1873 E Grand Ave,Hot Springs,AR,71901-4891,Public,9 Holes,(501) 620-4567,-93.013932,34.513328,NA,140.7956479948773,3503.5815608196826,NA
Bunker Hill Golf Course,8 Bunker Hill Dr,Houston,AR,72070-8120,Public,18 Holes,(501) 759-1200,-92.669502,35.070607,Morrilton Country Club,133.24225843801867,13152.920750459532,NA
Oakridge Golf Course,Highway 74 West,Huntsville,AR,72740,Public,18 Holes,(479) 738-6401,-93.765053,36.084287,Paradise Valley Golf and Athletic Club,117.72244748751503,31995.158221867026,NA
Foxwood Golf Club,701 Foxwood Dr,Jacksonville,AR,72076-2624,Public,18 Holes,(501) 982-7508,-92.083817,34.89208,NA,95.92780827032082,162.41748816738146,95.92780827032082
Hickory Creek Golf Course,8933 Arrington Rd,Jacksonville,AR,72076-9749,Public,18 Holes,(501) 988-4257,-92.167757,34.948717,Hickory Creek,70.14264961756699,0,70.14264961756699
Jonesboro Country Club,1408 E Nettleton Ave,Jonesboro,AR,72401-5160,Private,18 Holes,(870) 932-2410,-90.692519,35.82864,Jonesboro Country Club,98.32970330450019,38.00900467672331,98.32970330450019
RidgePointe Country Club,2510 Ridgepointe Dr,Jonesboro,AR,72404-6845,Private,18 Holes,(870) 931-5000,-90.77086,35.813537,NA,135.96009151918184,70.59813073844984,135.96009151918184
Links At Jonesboro,1424 Links Cir,Jonesboro,AR,72404-0698,Public,9 Holes,(870) 932-2578,-90.681585,35.792648,The Links at Jonesboro Golf & Athletic Club,92.71956754980594,0,92.71956754980594
Sage Meadows Golf Course,4406 Clubhouse Dr,Jonesboro,AR,72401-8034,Public,18 Holes,(870) 932-4420,-90.636611,35.887027,NA,314.37077632115717,0,314.37077632115717
Lake Village Country Club,3309 Lakeshore Dr N,Lake Village,AR,71653-9532,Public,9 Holes,(870) 265-3146,-91.263602,33.36141,Lake Village Country Club,86.16620739161067,203.74207082826388,86.16620739161067
West Helena Municipal Golf Course,587 Phillips 221,Lexa,AR,72355-8497,Municipal,9 Holes,(870) 572-1490,-90.66307,34.576837,West Helena Municipal Golf Course,58.886590143094395,1.5993707531626953,58.886590143094395
Deer Run Golf Course LRAFB,1075 Cannon Dr,Little Rock Air Force Base,AR,72099-4942,Semi Private,18 Holes,(501) 987-6825,-92.146144,34.895409,NA,95.92780827032082,5410.972253808302,NA
Hindman Golf Course,60 Brookview Dr,Little Rock,AR,72209-2017,Municipal,18 Holes,(501) 565-6450,-92.357074,34.694825,The First Tee of Central Arkansas,144.4314474289068,1423.223135431765,NA
Rebsamen Park Golf Course,3400 Rebsamen Park Rd,Little Rock,AR,72202,Municipal,27 Holes,(501) 666-7965,-92.317886,34.779182,Rebsamen Golf Course,206.5724959783455,41.22419046974391,206.5724959783455
War Memorial Golf Course,5511 W Markham St,Little Rock,AR,72205-3411,Municipal,18 Holes,(501) 663-0854,-92.334989,34.751879,The Country Club of Little Rock,139.01062166558359,2277.4121668208704,NA
Country Club of Little Rock,4200 Country Club Blvd,Little Rock,AR,72207-2028,Private,18 Holes,(501) 663-4189,-92.322689,34.771807,The Country Club of Little Rock,139.01062166558359,0,139.01062166558359
Pleasant Valley Country Club,2 Pleasant Valley Dr,Little Rock,AR,72212-3435,Private,18 Holes,(501) 225-2234,-92.405525,34.779389,NA,298.09909909197586,0,298.09909909197586
Chenal Country Club,10 Chenal Club Blvd,Little Rock,AR,72223-9554,Semi Private,36 Holes,(501) 821-7565,-92.473894,34.780896,Chenal Country Club,329.3148760195707,0,329.3148760195707
Eagle Hill Golf & Athletic Club,3 Eagle Hill Ct Ste 3A,Little Rock,AR,72210-8059,Semi Private,18 Holes,(501) 455-8848,-92.42943,34.675311,NA,132.47321644999326,67.81995617205439,132.47321644999326
The First Tee of Central Arkansas,#1 The First Tee Way,Little Rock,AR,72204,Public,27 Holes,(501) 562-4653,-92.347679,34.711672,The First Tee of Central Arkansas,144.4314474289068,0,144.4314474289068
Lonoke Golf Course,505 Mallard Point Dr,Lonoke,AR,72086-8293,Public,18 Holes,(501) 676-0542,-91.924208,34.79164,NA,322.0375514644616,0,322.0375514644616
Pine Hills Golf & Tennis Club,3111 Ouachita 67,Louann,AR,71751-8629,Private,9 Holes,(870) 725-2371,-92.721215,33.405716,El Dorado Golf & Country Club,99.72257608503267,18751.338593311444,NA
The Links at Lowell,105 N Dixieland St,Lowell,AR,72745-8739,Public,9 Holes,(479) 770-6066,-94.145548,36.254758,NA,31.061539915119265,2054.1090903495833,NA
Lakeview Country Club,8500 Castle Valley Rd,Mabelvale,AR,72103-2800,Public,18 Holes,(501) 562-1814,-92.3651,34.634354,NA,102.9200524638767,182.12824768068586,102.9200524638767
Meadowbrook Golf and Country Club,6396 N State Highway 109,Magazine,AR,72943-8921,Public,18 Holes,(479) 963-8025,-93.761569,35.221893,NA,348.77032252964256,37285.10439005854,NA
Magnolia Country Club,1711 Highway 79 S,Magnolia,AR,71753-8320,Private,18 Holes,(870) 234-6484,-93.214085,33.196322,Magnolia Country Club,141.7215786828759,0,141.7215786828759
Malvern Country Club,473 Clubhouse Ln,Malvern,AR,72104-6347,Private,18 Holes,(501) 337-1482,-92.737872,34.285422,NA,122.27686331596507,27350.606927222132,NA
Big Lake Country Club,Highway 77 North,Manila,AR,72442,Public,9 Holes,(870) 561-9988,-90.172912,35.89492,Big Lake Country Club,69.5312402024843,24.64245284309598,69.5312402024843
Marianna Country Club,418 W Chestnut St,Marianna,AR,72360-2115,Private,9 Holes,(870) 295-5270,-90.771351,34.774623,NA,64.03764743735735,1438.2366148986896,NA
Marion Golf & Athletic Club,303 Club Cir,Marion,AR,72364-1602,Semi Private,18 Holes,(870) 739-6305,-90.20577,35.197191,Brownstone Country Club & Resort,85.18234832199639,60.03107105680599,85.18234832199639
Three Rivers Country Club,34441 Country Club Rd,Marked Tree,AR,34441,Public,9 Holes,(870) 358-3385,-90.42004,35.564851,The Links at Jonesboro Golf & Athletic Club,92.71956754980594,34441.2497644427,NA
Maumelle Golf & Country Club,100 Club Manor Dr,Maumelle,AR,72113-6400,Private,18 Holes,(501) 851-3700,-92.409534,34.846844,NA,298.09909909197586,6753.970472305634,NA
The Country Club of Arkansas,3 Country Club Cir,Maumelle,AR,72113-6578,Public,18 Holes,(501) 851-0095,-92.397051,34.843243,NA,298.09909909197586,6528.218713326189,NA
Delta Country Club,Highway 4 East,Mc Gehee,AR,71654,Private,9 Holes,(870) 222-6622,-91.351071,33.602111,Delta Country Club and Golf Course,70.0839264159898,0,70.0839264159898
Coopers Hawk,Highway 69 Spur,Melbourne,AR,72556,Public,18 Holes,(870) 368-3280,-91.842261,36.067112,NA,223.73084246921954,0,223.73084246921954
Mena Golf Club,500 Lyons Park Road,Mena,AR,71953,Public,9 Holes,(479) 243-0699,-94.205659,34.582534,Lions Club Golf Course,37.67663756897696,4295.909465034821,NA
Ouachita Golf & Country Club,123 Country Club Ln,Mena,AR,71953-7738,Public,9 Holes,(479) 394-5382,-94.180667,34.581392,Lions Club Golf Course,37.67663756897696,6464.921732435584,NA
Monticello Country Club,134 Golf Course Dr,Monticello,AR,71655-9206,Private,9 Holes,(870) 367-0384,-91.81124,33.657029,Delta Country Club and Golf Course,70.0839264159898,42807.51461114591,NA
Morrilton Golf & Country Club,1000 Country Club Rd,Morrilton,AR,72110-3245,Private,18 Holes,(501) 354-0324,-92.770682,35.161546,Morrilton Country Club,133.24225843801867,0,133.24225843801867
Big Creek Golf & Country Club,452 Country Club Dr,Mountain Home,AR,72653-4118,Public,18 Holes,(870) 425-8815,-92.42101,36.320459,NA,204.42908924820551,0,204.42908924820551
Twin Lakes Golf Club,70 Elk Way,Mountain Home,AR,72653-6601,Public,18 Holes,(870) 425-2028,-92.355932,36.353721,NA,43.68206872767059,68.4574367557174,43.68206872767059
Pine Hills Golf Course,HC 71 Box 391,Mountain View,AR,72560,Municipal,9 Holes,(870) 269-5777,-92.09809,35.877822,NA,32.89964439883657,0,32.89964439883657
Nashville Country Club,283 Country Club Rd,Nashville,AR,71852-7502,Private,18 Holes,(870) 845-9992,-93.89469,33.934454,Millwood Country Club,182.88510434322887,25774.65319071564,NA
Newport Country Club,703 Walker Dr,Newport,AR,72112-4095,Private,18 Holes,(870) 523-8904,-91.26923,35.598412,NA,138.71706404076593,0,138.71706404076593
Village Creek Golf Inc,Stegal Road,Newport,AR,72112,Private,18 Holes,(870) 523-9676,-91.211681,35.607167,NA,135.8932914458628,12.370466147621826,135.8932914458628
Burns Park Golf Course,30 Championship Dr,North Little Rock,AR,72118-3416,Municipal,36 Holes,(501) 791-8587,-92.303719,34.79521,Burns Park Golf Course,241.83342022108886,0,241.83342022108886
Emerald Park Golf Course,2200 Fort Roots Dr,North Little Rock,AR,72114-1709,Municipal,9 Holes,(501) 244-8500,-92.28939,34.773243,Rebsamen Golf Course,206.5724959783455,1863.2338162447895,NA
Camp Robinson Golf Course,Camp Robinson,North Little Rock,AR,72118,Public,9 Holes,(501) 753-8877,-92.284638,34.829737,NA,75.61128801447812,167.7949540802705,75.61128801447812
Pine Valley Golf Course,9311 Tom Box Road,North Little Rock,AR,72120,Public,18 Holes,(501) 835-3424,-92.211304,34.912735,Pine Valley Golf Course,113.02793044847571,0,113.02793044847571
Stonelinks Golf Course,110 Highway 391 N,North Little Rock,AR,72117-9519,Public,18 Holes,(501) 945-0945,-92.128135,34.745309,NA,245.58836805977216,0,245.58836805977216
The Links At the Rock,12025 Paul Eells Dr,North Little Rock,AR,12025,Public,18 Holes,(501) 812-0304,-92.386995,34.836185,NA,298.09909909197586,6053.069210469027,NA
Osceola Golf Course,Country Club Road,Osceola,AR,72370,Municipal,9 Holes,(870) 563-6218,-90.017434,35.707895,NA,89.39581467505563,1569.8020605861943,NA
Ozark Recreation Assoc.Club,6624 Ozark Lock & Dam Road,Ozark,AR,72949,Public,9 Holes,(479) 667-2908,-93.794279,35.475036,NA,52.45332789419354,49408.36438518234,NA
Paragould Country Club,3300 Pruetts Chapel Rd,Paragould,AR,72450-6025,Private,18 Holes,(870) 239-2328,-90.530849,36.037997,Paragould Country Club,140.79529995206605,0,140.79529995206605
Fox Hills Golf Club,2105 Country Club Rd,Paragould,AR,72450-1958,Public,18 Holes,(870) 236-7847,-90.513536,36.070946,Paragould Country Club,140.79529995206605,3963.62722793907,NA
Big Sugar Golf Club,1101 Sugar Creek Rd,Pea Ridge,AR,72751-3736,Public,18 Holes,(479) 451-9550,-94.119635,36.421723,NA,329.80796921548426,392.1476737754385,329.80796921548426
Walnut Lake Country Club,100 Country Club Lane,Pickens,AR,71662,Private,9 Holes,(870) 382-4388,-91.483168,33.846977,Delta Country Club and Golf Course,70.0839264159898,29283.26762244712,NA
Sugar Creek Country Club,Country Club Road,Piggott,AR,72454,Public,9 Holes,(870) 598-3515,-90.198594,36.392341,NA,59.884956276678274,63.42526302187115,59.884956276678274
Jaycee Memorial Golf Course,Oakland Park Dr,Pine Bluff,AR,71601,Municipal,9 Holes,(870) 536-5241,-92.03916,34.238235,Jaycee Golf Course,73.82943984575525,116.56957941871894,73.82943984575525
Pine Bluff Country Club,1100 Country Club Ln,Pine Bluff,AR,71603,Private,18 Holes,(870) 535-3180,-92.012536,34.183317,Harbor Oaks Golf Club,223.19191399603596,6602.732456204671,NA
Rosswood Country Club,7619 Rosswood Rd,Pine Bluff,AR,71603-8300,Private,18 Holes,(870) 535-0136,-92.015629,34.146433,Jaycee Golf Course,73.82943984575525,10474.109830737401,NA
Harbor Oaks Golf Club,1 Harbor Oaks Drive,Pine Bluff,AR,71611,Public,18 Holes,(870) 541-9010,-91.987768,34.248173,Harbor Oaks Golf Club,223.19191399603596,0,223.19191399603596
Pine Haven Golf Course,Pine Bluff Arsenal,Pine Bluff,AR,71602,Public,9 Holes,(870) 540-3779,-92.041522,34.239353,Jaycee Golf Course,73.82943984575525,0,73.82943984575525
Rolling Hills Country Club,2365 Country Club Rd,Pocahontas,AR,72455-8825,Public,18 Holes,(870) 892-3323,-91.004824,36.320579,NA,59.3798328159215,39650.92803966236,NA
Galla Creek Golf Course,141 Golf Club Lane,Pottsville,AR,72858,Public,18 Holes,(479) 890-6653,-93.048974,35.236504,Morrilton Country Club,133.24225843801867,25677.5577849193,NA
Prescott Country Club,Highway #67 North,Prescott,AR,71857,Private,9 Holes,(870) 887-5341,-93.375973,33.819946,Prescott Country Club,72.97637530836693,0,72.97637530836693
Little Creek Recreation Club,Highway #22 West,Ratcliff,AR,72951,Public,9 Holes,(479) 635-5551,-93.891908,35.303258,NA,52.45332789419354,32236.098693049564,NA
Lost Springs Golf and Athletic Club,3024 N 22nd St,Rogers,AR,72756-2177,Semi Private,18 Holes,(479) 631-9988,-94.14766,36.360599,Lost Springs Golf & Athletic Club,145.8396520851986,10.184453758020508,145.8396520851986
Pinnacle Country Club,3 Clubhouse Dr,Rogers,AR,72758-9563,Semi Private,18 Holes,(479) 273-0500,-94.199156,36.29657,The Greens on Blossom Way,38.642117888967206,2487.0070478387784,NA
Shadow Valley Country Club,7001 Shadow Valley Rd,Rogers,AR,72758-8148,Semi Private,18 Holes,(479) 203-0000,-94.21863,36.287578,The Greens on Blossom Way,38.642117888967206,4239.797119013367,NA
Prairie Creek Country Club,1585 Roundtree Dr,Rogers,AR,72756,Public,18 Holes,(479) 925-2414,-94.06382,36.333097,Lost Springs Golf & Athletic Club,145.8396520851986,7797.7694546153625,NA
The Greens on Blossom Way,2808 S 28th Pl,Rogers,AR,72758,Public,18 Holes,(479) 631-1811,-94.163407,36.29113,The Greens on Blossom Way,38.642117888967206,98.18835336086428,38.642117888967206
Alotian Golf Club,101 Alotian Dr,Roland,AR,72135-9558,Semi Private,18 Holes,(501) 379-2568,-92.581795,34.867591,NA,467.8708364906412,336.0808384497089,467.8708364906412
Russellville Country Club,Highway 7,Russellville,AR,72801,Private,18 Holes,(479) 968-2660,-93.137174,35.340506,NA,348.77032252964256,32429.382640860764,NA
Searcy Country Club,2729 W Country Club Rd,Searcy,AR,72143-9627,Private,18 Holes,(501) 268-8577,-91.779285,35.235572,Searcy Country Club,136.44171159860844,0,136.44171159860844
The Course at River Oaks,1 Golf Course Dr,Searcy,AR,72143-4552,Public,18 Holes,(501) 279-4653,-91.698172,35.253536,The Course at River Oaks,124.4338405152105,558.2550134286,NA
Sheridan Country Club,Highway 270 West,Sheridan,AR,72150,Private,9 Holes,(870) 942-2688,-92.449557,34.30182,NA,122.27686331596507,31207.444835727256,NA
The Links at Sherwood,3434 E Kiehl Ave,Sherwood,AR,72120-3316,Public,9 Holes,(501) 833-8010,-92.194969,34.832079,The Greens at North Hills,118.07810536261876,2815.5718164826467,NA
Dawn Hill Country Club,13890 Turnberry Ln,Siloam Springs,AR,13890,Public,18 Holes,(479) 524-4838,-94.518608,36.227188,Siloam Springs Country Club,45.05853972022421,3510.4133484031563,NA
Siloam Spring Country Club,801 N Country Club Rd,Siloam Springs,AR,72761-2918,Public,9 Holes,(479) 524-4269,-94.521842,36.193528,Siloam Springs Country Club,45.05853972022421,0,45.05853972022421
Springdale Country Club,4705 S Thompson St,Springdale,AR,72764-2547,Private,18 Holes,(479) 751-5185,-94.144024,36.141431,Paradise Valley Golf and Athletic Club,117.72244748751503,2716.293529861749,NA
Brush Creek Golf Course,6220 Har Ber Ave,Springdale,AR,72762-7837,Public,9 Holes,(479) 750-0606,-94.198962,36.186549,Brush Creek Golf Course,42.954484007950725,0,42.954484007950725
The Links At Springdale,4097 Links Dr,Springdale,AR,72762-5610,Public,9 Holes,(479) 750-0216,-94.176033,36.170925,Brush Creek Golf Course,42.954484007950725,2597.8875710428947,NA
Stuttgart Country Club,Highway 130 East,Stuttgart,AR,72160,Private,18 Holes,(870) 673-8421,-91.526679,34.479492,Stuttgart Country Club,135.75603951202578,0,135.75603951202578
Texarkana Country Club,1 Country Club Ln,Texarkana,AR,71854-7722,Private,18 Holes,(870) 772-8221,-94.017509,33.407402,Texarkana Country Club,180.8862369112313,24.39991161702133,180.8862369112313
Links at Texarkana,333 Links Dr,Texarkana,AR,71854-8549,Public,9 Holes,(870) 773-6154,-94.039214,33.472331,NA,25.047558682202155,22.930341032991688,25.047558682202155
South Haven Golf Club,2321 Line Ferry Rd,Texarkana,AR,71854-7859,Public,18 Holes,(870) 774-5771,-94.030286,33.39901,New Haven Golf Club,148.4871876956322,16.943718649699605,148.4871876956322
Trumann Country Club,Country Club Boulevard,Trumann,AR,72472,Private,9 Holes,(870) 483-7627,-90.494768,35.660396,The Links at Jonesboro Golf & Athletic Club,92.71956754980594,22163.026191729852,NA
Cedars Country Club,1301 City Park Road,Van Buren,AR,72956,Public,9 Holes,(479) 474-2412,-94.346032,35.450315,Cedars Country Club,49.369716631988894,36.65770541658648,49.369716631988894
Waldron Country Club,Rena Owens Dr,Waldron,AR,72958,Public,9 Holes,(479) 637-4374,-94.039063,34.944902,NA,52.45332789419354,32822.54936777818,NA
Walnut Ridge Country Club,249 Lawrence 408,Walnut Ridge,AR,72476-8148,Public,9 Holes,(870) 886-9816,-90.9211,36.131943,Paragould Country Club,140.79529995206605,35939.52341299431,NA
Warren Country Club,525 US Highway 63 S,Warren,AR,71671-9309,Private,9 Holes,(870) 226-9935,-92.068389,33.553631,NA,62.846372114112924,62147.52824545324,NA
Helena Country Club,719 Walden Ridge Drive,West Helena,AR,72390,Private,18 Holes,(870) 572-2877,-90.635456,34.531428,Helena Country Club,108.5857690909982,0,108.5857690909982
Meadowbrook Country Club,1250 W Broadway St,West Memphis,AR,72301-3807,Private,18 Holes,(870) 735-6767,-90.211742,35.146244,Meadowbrook Country Club,126.51441875826968,0,126.51441875826968
Little River Country Club,392 Country Club Rd,Winthrop,AR,71866-9537,Private,9 Holes,(870) 381-7408,-94.412623,33.924063,Millwood Country Club,182.88510434322887,42982.142012513694,NA
The Resort At Village Creek,4268 Hwy 284,Wynne,AR,72396-8031,Municipal,18 Holes,(870) 238-6500,-91.040046,35.193922,Crowley's Ridge Country Club,73.84528170552602,28209.577061412994,NA
Crowley Ridge Country Club,768 Highway 64,Wynne,AR,72396-7415,Private,9 Holes,(870) 238-9918,-90.798047,35.25416,Crowley's Ridge Country Club,73.84528170552602,6239.831366280862,NA
Ajo Country Club,77 W Mead Rd,Ajo,AZ,85321,Public,9 Holes,(520) 387-5011,-112.849399,32.45322,Ajo Country Club and Golf Course,82.36725316545031,24.17805999597961,82.36725316545031
Alpine Country Club,100 Country Club Road,Alpine,AZ,85920,Public,9 Holes,(928) 339-4944,-109.1533,33.824583,NA,24.38124832799855,34857.827879918084,NA
Anthem Golf & Country Club,2708 W Anthem Club Dr,Anthem,AZ,85086-1092,Semi Private,36 Holes,(623) 742-6210,-112.118278,33.864935,NA,57.446474555965345,0,57.446474555965345
Roadhaven Golf Course,1000 S Idaho Rd,Apache Junction,AZ,85219-6495,Semi Private,9 Holes,(480) 982-4653,-111.546234,33.40578,NA,6.396513727214646,396.4609899402937,6.396513727214646
Apache Creek Golf Club,3401 S Ironwood Dr,Apache Junction,AZ,85220-7116,Public,18 Holes,(480) 982-2677,-111.563232,33.384605,Apache Creek Golf Club,151.79754891298873,2.3603935522009944,151.79754891298873
Superstition Mountain Club,8000 E Club Village Dr,Apache Junction,AZ,85218-1801,Public,36 Holes,(480) 983-3200,-111.463136,33.382644,Superstition Mountain Golf,368.21629260807185,0,368.21629260807185
Arizona City Golf Club,13939 E Cleator,Arizona City,AZ,13939,Public,18 Holes,(520) 466-5327,-111.672419,32.75558,NA,95.19356788372966,437.9330375800057,95.19356788372966
Coldwater Golf Club,100 N Clubhouse Dr,Avondale,AZ,85323-8262,Public,18 Holes,(623) 932-9000,-112.317851,33.445263,NA,4.1865497284505455,28.109095155038304,4.1865497284505455
Mesa View Golf Course,4 Ash Street,Bagdad,AZ,86321,Public,9 Holes,(928) 633-2818,-113.174658,34.574866,NA,1.6055239519972466,21.371276711104667,1.6055239519972466
San Pedro Golf Course,926 N Madison Ave,Benson,AZ,85602-6003,Public,18 Holes,(520) 586-7888,-110.298362,31.979607,San Pedro Golf Course,174.23816899998022,330.1844987803615,174.23816899998022
Turquoise Hills Family Golf Center,800 E Country Club Rd,Benson,AZ,85602-7002,Public,18 Holes,(520) 586-2585,-110.28251,31.949359,San Pedro Golf Course,174.23816899998022,2562.388803073396,NA
Copper Canyon Golf Club,26577 W Desert Vista Blvd,Buckeye,AZ,26577,Public,18 Holes,(866) 450-9322,-112.618988,33.666066,Arizona Traditions Golf Club,147.07168149415818,15769.580810668565,NA
Raven Golf Club At Verrado,4242 N Golf Dr,Buckeye,AZ,85396-3504,Public,18 Holes,(800) 426-6148,-112.515548,33.496201,NA,142.13231250697908,0,142.13231250697908
Sundance Golf Club,900 North Sundance Pkwy,Buckeye,AZ,85326,Public,18 Holes,(623) 328-0400,-112.554279,33.439915,NA,47.640914083202496,2.251503516823724,47.640914083202496
Chaparral Golf & Country Club,1260 Mohave Dr,Bullhead City,AZ,86442-7643,Public,9 Holes,(928) 758-6330,-114.603452,35.082277,Chaparral Golf Course,41.591038408704605,18.72539409109891,41.591038408704605
Laughlin Ranch Golf Club,1360 William Hardy Dr,Bullhead City,AZ,86429-1146,Public,18 Holes,(866) 684-4653,-114.527224,35.137459,NA,166.5688442724479,3.2414170535629463,166.5688442724479
Desert Forest Golf Club,37207 N Mule Train Rd,Carefree,AZ,37207,Private,18 Holes,(480) 488-4589,-111.908507,33.821838,Desert Forest Golf Club,173.1106984425003,0.8667288033998491,173.1106984425003
The Boulders Resort Golf Club,34831 N Tom Darlington Drive,Carefree,AZ,34831,Private,18 Holes,(480) 488-9028,-111.926371,33.803453,NA,0.8021601226538096,84.26741037331958,0.8021601226538096
The Boulders Resort Golf Club,34831 N Tom Darlington Drive,Carefree,AZ,34831,Public,18 Holes,(480) 488-9028,-111.926371,33.803453,NA,0.8021601226538096,84.26741037331958,0.8021601226538096
Dave White Municipal Golf Course,2121 N Thornton Rd,Casa Grande,AZ,85222-7825,Municipal,36 Holes,(520) 836-9216,-111.774245,32.900659,Dave White Municipal Golf Course,172.27309870835722,1278.6952769609838,NA
Francisco Grande Resort and Golf Course,12684 W Gila Bend Hwy,Casa Grande,AZ,12684,Public,18 Holes,(800) 237-4238,-111.847234,32.880215,Francisco Grande Hotel and Golf Resort,185.6814550733447,108.37162918685917,185.6814550733447
Mission Royale Golf Club,11 Mission Royale South 1,Casa Grande,AZ,85222,Public,18 Holes,(520) 876-5335,-111.671746,32.870491,NA,77.54755441676558,25.92647885802525,77.54755441676558
Palm Creek Golf & RV Resort,1110 N Henness Rd,Casa Grande,AZ,85222-5411,Public,18 Holes,(520) 421-7004,-111.705073,32.88689,Palm Creek Resort & Residences,54.18136493625672,246.96932759663665,54.18136493625672
Tierra Grande Golf Club,813 W Calle Rosa,Casa Grande,AZ,85222-8741,Public,18 Holes,(520) 723-9717,-111.765289,32.91618,Dave White Municipal Golf Course,172.27309870835722,42.162535078853374,172.27309870835722
Tatum Ranch Golf Course,29888 N Tatum Ranch Dr,Cave Creek,AZ,29888,Private,18 Holes,(480) 585-2399,-111.985701,33.75902,Tatum Ranch Golf Club,155.08742441458745,0,155.08742441458745
Dove Valley Ranch,33750 N Black Mountain Pkwy,Cave Creek,AZ,33750,Public,18 Holes,(480) 473-1444,-111.995124,33.790935,NA,134.17596418021392,0,134.17596418021392
Rancho Manana Golf Club,5734 E Rancho Manana Blvd,Cave Creek,AZ,85331-8513,Public,18 Holes,(480) 488-0398,-111.955382,33.832267,Private golf course,0.4777172185237468,2582.6439488884253,NA
Sun Lakes Country Club,25425 N Sunlakes Blvd,Chandler,AZ,25425,Private,18 Holes,(480) 895-9274,-111.880049,33.21159,Sun Lakes Golf Course,81.0560410564879,42.88073834941909,81.0560410564879
Bear Creek Golf Course,500 E Riggs Rd,Chandler,AZ,85249-3605,Public,36 Holes,(480) 883-8200,-111.832128,33.2188,Bear Creek Golf Complex,231.71023736486887,9.962610259369148,231.71023736486887
Ironwood Golf Club,550 W Champagne Dr,Chandler,AZ,85248-7837,Public,18 Holes,(480) 895-0614,-111.848682,33.224324,NA,65.78060386074,40.38948308629579,65.78060386074
Lone Tree Golf Club,6262 S Mountain Blvd,Chandler,AZ,85249-3965,Public,18 Holes,(480) 219-0831,-111.78242,33.21515,NA,76.93845907500445,0,76.93845907500445
Ocotillo Golf Resort,3751 S Clubhouse Dr,Chandler,AZ,85248-4200,Public,54 Holes,(888) 624-8899,-111.871932,33.249948,NA,266.2547915315739,3.9318542708991164,266.2547915315739
San Marcos Golf Resort,1 N San Marcos Pl,Chandler,AZ,85225-7870,Public,18 Holes,(480) 963-3358,-111.842187,33.303516,NA,115.70531009328354,313.83171063247823,115.70531009328354
Springfield Golf Resort,1200 E St Andrews Blvd,Chandler,AZ,85249-4500,Public,18 Holes,(480) 895-5759,-111.821787,33.211449,Springfield Golf Resort,89.19581507374498,0,89.19581507374498
SunBird Golf Club,6240 S Sunbird Blvd,Chandler,AZ,85249-4059,Public,18 Holes,(480) 883-0820,-111.809432,33.215485,NA,8.864718161209863,79.9096812425333,8.864718161209863
Whirlwind Golf Club,5692 W North Loop Rd,Chandler,AZ,85226-5401,Public,36 Holes,(480) 940-1500,-111.986398,33.271388,Whirlwind Golf Course,464.0659742048709,169.12055834273175,464.0659742048709
Concho Valley Country Club,7 CR 5100,Concho,AZ,85924,Public,18 Holes,(928) 337-4644,-109.633792,34.435647,Concho Valley Country Club,196.1626361678656,13.800055004832375,196.1626361678656
Verde Santa Fe Golf Club,645 Verde Sante Fe Pkwy,Cornville,AZ,86325,Public,18 Holes,(928) 634-5454,-111.964056,34.72721,Verde Santa Fe Golf Course,148.6160522057744,21.565543143787878,148.6160522057744
Santa Rita Golf Club,16461 S Houghton Rd,Corona de Tucson,AZ,16461,Public,18 Holes,(520) 762-5620,-110.772278,31.956685,NA,66.98090725956202,12405.15430114489,NA
Pine Shadows Golf Course,1480 W Groseta Ranch Rd,Cottonwood,AZ,86326-8008,Public,9 Holes,(928) 634-1093,-112.045125,34.747123,Coyote Trails Golf Cours (ex Pine Shadows),38.786370410099565,281.7329504121532,38.786370410099565
Prescott Golf & Country Club,1030 N Prescott Country Club Blvd,Dewey,AZ,86327-5801,Public,18 Holes,(800) 717-7274,-112.26407,34.558657,Prescott Country Club,162.29527873780268,111.14922213023303,162.29527873780268
Quail Wood Greens Golf Course,12200 E State Route 69,Dewey,AZ,12200,Public,18 Holes,(928) 772-0130,-112.250966,34.549587,Quailwood Greens Golf Course,102.47070681841032,565.4246429421271,NA
Douglas Golf and Social Club,1372 E Fairway Dr,Douglas,AZ,85607-6261,Municipal,18 Holes,(520) 364-1588,-109.54111,31.37443,City of Douglas Municipal Golf Course,138.27852694035477,26.238797408086956,138.27852694035477
Greenlee Country Club,Highway 75,Duncan,AZ,85534,Private,9 Holes,(928) 687-1099,-109.193156,32.901486,Greenlee Country Club,66.55825455486833,18.90850754409418,66.55825455486833
River Run Golf Course,21 N Grist Mill Rd,Eagar,AZ,85925,Public,18 Holes,(928) 333-3382,-109.305222,33.951865,NA,24.38124832799855,17691.008538914448,NA
Pueblo Golf Course,11201 N El Mirage Rd,El Mirage,AZ,11201,Public,18 Holes,(623) 583-0425,-112.32455,33.58828,NA,20.00112928482465,50.59446057322276,20.00112928482465
Grande Valley Golf Club,1505 N Toltec Rd,Eloy,AZ,85231-9619,Public,18 Holes,(520) 466-7734,-111.619345,32.769781,San Miguel Golf (ex Grande Valley),156.90153341942406,115.82809451302712,156.90153341942406
Robson Ranch Golf Club,5750 N Robson Blvd,Eloy,AZ,85131-3021,Public,18 Holes,(520) 426-3333,-111.640113,32.815564,NA,52.01172565196764,94.07374847528541,52.01172565196764
Aspen Valley Golf Club,1855 N Continental Dr,Flagstaff,AZ,86004-7572,Private,18 Holes,(928) 527-4653,-111.59019,35.198908,NA,26.15332284607378,93.58662675280996,26.15332284607378
Flagstaff Ranch Golf Club,3605 S Flagstaff Ranch Rd,Flagstaff,AZ,86001-2425,Private,18 Holes,(866) 435-2472,-111.711653,35.180781,Flagstaff Ranch Golf Club,165.50237971941587,21.127600023787885,165.50237971941587
Forest Highlands Golf Club,1 Forest Highlands,Flagstaff,AZ,86001-8401,Private,36 Holes,(888) 470-4607,-111.703289,35.116884,Meadow Course,338.52036312529566,31.59162283491963,338.52036312529566
Pine Canyon Club,3000 S Clubhouse Cir,Flagstaff,AZ,86001,Semi Private,18 Holes,(928) 779-5800,-111.636054,35.165942,Pine Canyon Golf Course,184.49101749599805,5.325446915825835,184.49101749599805
Continental Country Club,2380 N Oakmont Dr,Flagstaff,AZ,86004-7427,Public,18 Holes,(877) 526-5125,-111.579628,35.201932,NA,17.40659907577741,67.87829997351291,17.40659907577741
3 Parks Fairways,3841 N Florence Blvd,Florence,AZ,85232-8346,Private,9 Holes,(520) 868-0110,-111.37906,33.074103,NA,4.384279475038983,3.0813837066796315,4.384279475038983
Oasis Golf Club,5764 E Hunt Hwy,Florence,AZ,85232-7150,Public,18 Holes,(480) 888-8890,-111.501682,33.093279,NA,4.693560272901104,83.94925214027356,4.693560272901104
Poston Butte Golf Club,6100 W Merrill Ranch Pkwy,Florence,AZ,85132-6893,Public,18 Holes,(520) 723-1880,-111.468435,33.062366,NA,43.35193222946429,9.94945070656772,43.35193222946429
Mountain View Golf Course,Bldg 15479,Fort Huachuca,AZ,15479,Public,18 Holes,(520) 533-7088,-110.312319,31.548298,Mountain View Golf Course (Military),177.37841089887644,0,177.37841089887644
We Ko Pa Golf Club,18200 E Toh Vee Cir,Fort McDowell,AZ,18200,Public,36 Holes,(866) 660-7700,-111.685984,33.581894,We-Ko-Pa Golf Club,513.7869140854402,173.69535467600676,513.7869140854402
Desert Lakes Golf Course,5835 S Desert Lakes Dr,Fort Mohave,AZ,86426-9106,Public,18 Holes,(928) 768-1000,-114.585486,34.986853,NA,88.0721761140802,0,88.0721761140802
Los Lagos Golf Course,6365 S Entrada Via Verdes,Fort Mohave,AZ,86427,Public,18 Holes,(928) 768-7778,-114.569636,34.971767,NA,3.2698144665212094,0,3.2698144665212094
FireRock Country Club,16000 E Firerock Country Club Dr,Fountain Hills,AZ,16000,Private,18 Holes,(480) 836-8000,-111.737096,33.578224,NA,62.73809024328122,34.46316059735658,62.73809024328122
Desert Canyon Golf Club,10440 N Indian Wells Dr,Fountain Hills,AZ,10440,Public,18 Holes,(480) 837-1173,-111.715104,33.581762,NA,17.738006850620383,15.234893592149835,17.738006850620383
SunRidge Canyon Golf Club,13100 N Sunridge Dr,Fountain Hills,AZ,13100,Public,18 Holes,(800) 562-5178,-111.758059,33.604977,NA,9.4774610070919,0,9.4774610070919
The Golf Club At Eagle Mountain,14915 E Eagle Mountain Pkwy,Fountain Hills,AZ,14915,Public,18 Holes,(480) 816-1234,-111.759809,33.577038,NA,5.233516414783509,920.7938943672115,NA
Seville Golf and Country Club,6683 S Clubhouse Dr,Gilbert,AZ,85297-4188,Semi Private,18 Holes,(866) 222-7432,-111.704411,33.226805,Legacy at Seville,19.631243182403903,123.9703087156213,19.631243182403903
Greenfield Lakes Golf Club,2484 E Warner Rd,Gilbert,AZ,85296-9500,Public,18 Holes,(480) 503-0500,-111.736322,33.335911,NA,48.83898547205363,45.43739704425312,48.83898547205363
Kokopelli Golf Course,1800 W Guadalupe Rd,Gilbert,AZ,85233-2926,Public,18 Holes,(480) 926-3589,-111.829554,33.365209,NA,155.71023758587228,0,155.71023758587228
Trilogy Golf Club At Power Ranch,4415 E Village Pkwy,Gilbert,AZ,85297-8004,Public,18 Holes,(480) 988-0004,-111.694189,33.26039,NA,125.89966461744183,0,125.89966461744183
Western Skies Golf Club,1245 E Warner Rd,Gilbert,AZ,85296-3109,Public,18 Holes,(480) 545-8542,-111.7637,33.335451,Western Skies Golf Club,136.18821830192158,79.68333075905613,136.18821830192158
Arrowhead Country Club,19888 N 73rd Ave,Glendale,AZ,19888,Semi Private,18 Holes,(623) 561-9600,-112.214807,33.663652,NA,84.50409284164046,88.04480924134171,84.50409284164046
Adobe Dam Family Golf Center,3847 W Pinnacle Peak Rd,Glendale,AZ,85310-4101,Public,9 Holes,(623) 581-2800,-112.143155,33.69814,Adobe Dam Family Golf Center,41.01995612075744,82.68001401203968,41.01995612075744
Bellaire Golf Club,17233 N 45th Ave,Glendale,AZ,17233,Public,18 Holes,(602) 978-0330,-112.157723,33.642073,NA,24.607886255437073,0,24.607886255437073
Desert Mirage Golf Course,8710 W Maryland Ave,Glendale,AZ,85305-2467,Public,9 Holes,(623) 772-0110,-112.246148,33.528146,Desert Mirage Golf Course,44.48824052303156,0,44.48824052303156
Glen Lakes Golf Course,5450 W Northern Ave,Glendale,AZ,85301-1406,Public,9 Holes,(623) 939-7541,-112.176343,33.553251,Grand Canyon University Golf Course,134.30493232065547,5841.995238908959,NA
The 500 Club at Adobe Dam,4707 W Pinnacle Peak Rd,Glendale,AZ,85310-3825,Public,27 Holes,(623) 492-9500,-112.163631,33.697926,Adobe Dam Family Golf Center,41.01995612075744,1507.7863620366347,NA
The Legend at Arrowhead,21027 N 67th Ave,Glendale,AZ,21027,Public,18 Holes,(623) 561-1902,-112.201974,33.677435,NA,414.56652389047554,32.701580864487326,414.56652389047554
Gold Canyon Golf Resort,6100 S Kings Ranch Rd,Gold Canyon,AZ,85218-4679,Public,36 Holes,(800) 624-6445,-111.44567,33.362487,Dinosaur Mountain Course,211.2945458513915,35.62639791811537,211.2945458513915
Gold Canyon RV Ranch,7151 E US Highway 60,Gold Canyon,AZ,85218-9769,Public,18 Holes,(877) 465-3226,-111.470801,33.358755,Mountain Brook Golf Club,164.80718631632297,285.0645734512065,164.80718631632297
Mountain Brook Golf Club,5783 S Mountainbrook Dr,Gold Canyon,AZ,85218-7189,Public,18 Holes,(480) 671-1000,-111.3638,33.2782,Queen Valley Golf Course,69.58050950816464,6562.165715070762,NA
Estrella Mountain Golf Course,15205 W Vineyard,Goodyear,AZ,15205,Municipal,18 Holes,(623) 932-3714,-112.385284,33.387273,Tres Rios Golf Course,129.04460995836,0,129.04460995836
Eagles Nest at Pebble Creek,3645 Clubhouse Dr,Goodyear,AZ,85338-8504,Public,18 Holes,(623) 935-6750,-112.390079,33.487918,NA,64.32959728559187,210.59833924020379,64.32959728559187
Estrella Mountain Ranch Golf Club,11800 S Golf Club Dr,Goodyear,AZ,11800,Public,18 Holes,(623) 386-2600,-112.432187,33.338865,Golf Club of Estrella,303.0522248603997,57.71057615524622,303.0522248603997
